ibge_id,uf,uf_name,name,capital,lon,lat,no_accents,alternative_names,microregion,mesoregion
1100015,RO,Rondônia,Alta Floresta D'Oeste,,-61.9998238963,-11.9355403048,Alta Floresta D'Oeste,,Cacoal,Leste Rondoniense
1100023,RO,Rondônia,Ariquemes,,-63.033269278,-9.9084628666,Ariquemes,,Ariquemes,Leste Rondoniense
1100031,RO,Rondônia,Cabixi,,-60.5443135812,-13.4997634597,Cabixi,,Colorado do Oeste,Leste Rondoniense
1100049,RO,Rondônia,Cacoal,,-61.4429442118,-11.4338650287,Cacoal,,Cacoal,Leste Rondoniense
1100056,RO,Rondônia,Cerejeiras,,-60.8184261647,-13.195033032,Cerejeiras,,Colorado do Oeste,Leste Rondoniense
1100064,RO,Rondônia,Colorado do Oeste,,-60.5550674631,-13.1305638415,Colorado do Oeste,,Colorado do Oeste,Leste Rondoniense
1100072,RO,Rondônia,Corumbiara,,-60.9487011707,-12.9975202365,Corumbiara,,Colorado do Oeste,Leste Rondoniense
1100080,RO,Rondônia,Costa Marques,,-64.2316539391,-12.4360138777,Costa Marques,,Guajará-Mirim,Madeira-Guaporé
1100098,RO,Rondônia,Espigão D'Oeste,,-61.0201731133,-11.5285546333,Espigao D'Oeste,,Cacoal,Leste Rondoniense
1100106,RO,Rondônia,Guajará-Mirim,,-65.3239518197,-10.7738837407,Guajara-Mirim,,Guajará-Mirim,Madeira-Guaporé
1100114,RO,Rondônia,Jaru,,-62.4762307081,-10.4359487679,Jaru,,Ji-Paraná,Leste Rondoniense
1100122,RO,Rondônia,Ji-Paraná,,-61.9450945827,-10.8820513183,Ji-Parana,,Ji-Paraná,Leste Rondoniense
1100130,RO,Rondônia,Machadinho D'Oeste,,-61.9995925724,-9.42556248,Machadinho D'Oeste,,Ariquemes,Leste Rondoniense
1100148,RO,Rondônia,Nova Brasilândia D'Oeste,,-62.308230163,-11.7213254139,Nova Brasilandia D'Oeste,,Alvorada D'oeste,Leste Rondoniense
1100155,RO,Rondônia,Ouro Preto do Oeste,,-62.2610551904,-10.7235739008,Ouro Preto do Oeste,,Ji-Paraná,Leste Rondoniense
1100189,RO,Rondônia,Pimenta Bueno,,-61.1836656736,-11.67753699,Pimenta Bueno,,Vilhena,Leste Rondoniense
1100205,RO,Rondônia,Porto Velho,true,-63.8314456544,-8.76889179,Porto Velho,,Porto Velho,Madeira-Guaporé
1100254,RO,Rondônia,Presidente Médici,,-61.9094386835,-11.1732050162,Presidente Medici,,Ji-Paraná,Leste Rondoniense
1100262,RO,Rondônia,Rio Crespo,,-62.900010366,-9.7055367097,Rio Crespo,,Ariquemes,Leste Rondoniense
1100288,RO,Rondônia,Rolim de Moura,,-61.7857809352,-11.7222589134,Rolim de Moura,,Cacoal,Leste Rondoniense
1100296,RO,Rondônia,Santa Luzia D'Oeste,,-61.7733054631,-11.9084233325,Santa Luzia D'Oeste,,Cacoal,Leste Rondoniense
1100304,RO,Rondônia,Vilhena,,-60.1385838661,-12.7413734718,Vilhena,,Vilhena,Leste Rondoniense
1100320,RO,Rondônia,São Miguel do Guaporé,,-62.7200634814,-11.6994897438,Sao Miguel do Guapore,,Alvorada D'oeste,Leste Rondoniense
1100338,RO,Rondônia,Nova Mamoré,,-65.3291490231,-10.4117712947,Nova Mamore,,Porto Velho,Madeira-Guaporé
1100346,RO,Rondônia,Alvorada D'Oeste,,-62.2772748657,-11.3441300234,Alvorada D'Oeste,,Alvorada D'oeste,Leste Rondoniense
1100379,RO,Rondônia,Alto Alegre dos Parecis,,-61.8530771686,-12.1317772246,Alto Alegre dos Parecis,,Cacoal,Leste Rondoniense
1100403,RO,Rondônia,Alto Paraíso,,-63.3176294335,-9.7166667381,Alto Paraiso,,Ariquemes,Leste Rondoniense
1100452,RO,Rondônia,Buritis,,-63.8296787918,-10.2098054072,Buritis,,Porto Velho,Madeira-Guaporé
1100502,RO,Rondônia,Novo Horizonte do Oeste,,-61.9943876628,-11.70974292,Novo Horizonte do Oeste,,Cacoal,Leste Rondoniense
1100601,RO,Rondônia,Cacaulândia,,-62.9031899346,-10.3388728394,Cacaulandia,,Ariquemes,Leste Rondoniense
1100700,RO,Rondônia,Campo Novo de Rondônia,,-63.6249914265,-10.5684164693,Campo Novo de Rondonia,,Porto Velho,Madeira-Guaporé
1100809,RO,Rondônia,Candeias do Jamari,,-63.7000200718,-8.7850207035,Candeias do Jamari,,Porto Velho,Madeira-Guaporé
1100908,RO,Rondônia,Castanheiras,,-61.9491611965,-11.4268422255,Castanheiras,,Cacoal,Leste Rondoniense
1100924,RO,Rondônia,Chupinguaia,,-60.90184775,-12.5568407611,Chupinguaia,,Vilhena,Leste Rondoniense
1100940,RO,Rondônia,Cujubim,,-62.5871745319,-9.3781933991,Cujubim,,Porto Velho,Madeira-Guaporé
1101005,RO,Rondônia,Governador Jorge Teixeira,,-62.7404576395,-10.6120717726,Governador Jorge Teixeira,,Ji-Paraná,Leste Rondoniense
1101104,RO,Rondônia,Itapuã do Oeste,,-63.1823370165,-9.1918716753,Itapua do Oeste,,Porto Velho,Madeira-Guaporé
1101203,RO,Rondônia,Ministro Andreazza,,-61.5189219301,-11.1962379842,Ministro Andreazza,,Cacoal,Leste Rondoniense
1101302,RO,Rondônia,Mirante da Serra,,-62.6694270953,-11.0456092899,Mirante da Serra,,Ji-Paraná,Leste Rondoniense
1101401,RO,Rondônia,Monte Negro,,-63.2955591672,-10.2630977559,Monte Negro,,Ariquemes,Leste Rondoniense
1101435,RO,Rondônia,Nova União,,-62.5550893989,-10.9155320417,Nova Uniao,,Ji-Paraná,Leste Rondoniense
1101450,RO,Rondônia,Parecis,,-61.5979979727,-12.1798270507,Parecis,,Vilhena,Leste Rondoniense
1101468,RO,Rondônia,Pimenteiras do Oeste,,-61.0443790025,-13.4765620025,Pimenteiras do Oeste,,Colorado do Oeste,Leste Rondoniense
1101476,RO,Rondônia,Primavera de Rondônia,,-61.3165462429,-11.8257069542,Primavera de Rondonia,,Vilhena,Leste Rondoniense
1101484,RO,Rondônia,São Felipe D'Oeste,,-61.5125081133,-11.9143893547,Sao Felipe D'Oeste,,Vilhena,Leste Rondoniense
1101492,RO,Rondônia,São Francisco do Guaporé,,-63.5708647108,-12.0637984122,Sao Francisco do Guapore,,Guajará-Mirim,Madeira-Guaporé
1101500,RO,Rondônia,Seringueiras,,-63.0387609977,-11.7671166356,Seringueiras,,Alvorada D'oeste,Leste Rondoniense
1101559,RO,Rondônia,Teixeirópolis,,-62.255922254,-10.932169286,Teixeiropolis,,Ji-Paraná,Leste Rondoniense
1101609,RO,Rondônia,Theobroma,,-62.3451455299,-10.248730552,Theobroma,,Ji-Paraná,Leste Rondoniense
1101708,RO,Rondônia,Urupá,,-62.3706324538,-11.1285452757,Urupa,,Ji-Paraná,Leste Rondoniense
1101757,RO,Rondônia,Vale do Anari,,-62.1768234421,-9.8513927081,Vale do Anari,,Ariquemes,Leste Rondoniense
1101807,RO,Rondônia,Vale do Paraíso,,-62.1343903568,-10.4310526846,Vale do Paraiso,,Ji-Paraná,Leste Rondoniense
1200013,AC,Acre,Acrelândia,,-67.05231658,-10.0737938925,Acrelandia,,Rio Branco,Vale do Acre
1200054,AC,Acre,Assis Brasil,,-69.5634591747,-10.9428656809,Assis Brasil,,Brasiléia,Vale do Acre
1200104,AC,Acre,Brasiléia,,-68.747943426,-11.0164110191,Brasileia,,Brasiléia,Vale do Acre
1200138,AC,Acre,Bujari,,-67.9518592792,-9.8200196267,Bujari,,Rio Branco,Vale do Acre
1200179,AC,Acre,Capixaba,,-67.6735079719,-10.5697677088,Capixaba,,Rio Branco,Vale do Acre
1200203,AC,Acre,Cruzeiro do Sul,,-72.6725313174,-7.630690005,Cruzeiro do Sul,,Cruzeiro do Sul,Vale do Juruá
1200252,AC,Acre,Epitaciolândia,,-68.7448680667,-11.028239828,Epitaciolandia,,Brasiléia,Vale do Acre
1200302,AC,Acre,Feijó,,-70.3539836082,-8.16024753,Feijo,,Tarauacá,Vale do Juruá
1200328,AC,Acre,Jordão,,-71.9508751248,-9.1933578598,Jordao,,Tarauacá,Vale do Juruá
1200336,AC,Acre,Mâncio Lima,,-72.9165010261,-7.5932225939,Mancio Lima,,Cruzeiro do Sul,Vale do Juruá
1200344,AC,Acre,Manoel Urbano,,-69.2599445775,-8.8363177369,Manoel Urbano,,Sena Madureira,Vale do Acre
1200351,AC,Acre,Marechal Thaumaturgo,,-72.7902659087,-8.9535911232,Marechal Thaumaturgo,,Cruzeiro do Sul,Vale do Juruá
1200385,AC,Acre,Plácido de Castro,,-67.1882600862,-10.3351332827,Placido de Castro,,Rio Branco,Vale do Acre
1200393,AC,Acre,Porto Walter,,-72.7423339648,-8.2666663628,Porto Walter,,Cruzeiro do Sul,Vale do Juruá
1200401,AC,Acre,Rio Branco,true,-67.8105287004,-9.9782987527,Rio Branco,,Rio Branco,Vale do Acre
1200427,AC,Acre,Rodrigues Alves,,-72.6478549142,-7.7336020337,Rodrigues Alves,,Cruzeiro do Sul,Vale do Juruá
1200435,AC,Acre,Santa Rosa do Purus,,-70.4864968938,-9.4434065374,Santa Rosa do Purus,,Sena Madureira,Vale do Acre
1200450,AC,Acre,Senador Guiomard,,-67.74317236,-10.1481735862,Senador Guiomard,,Rio Branco,Vale do Acre
1200500,AC,Acre,Sena Madureira,,-68.6556840617,-9.065339505,Sena Madureira,,Sena Madureira,Vale do Acre
1200609,AC,Acre,Tarauacá,,-70.7555010629,-8.1556685918,Tarauaca,,Tarauacá,Vale do Juruá
1200708,AC,Acre,Xapuri,,-68.506294805,-10.6520719403,Xapuri,,Brasiléia,Vale do Acre
1200807,AC,Acre,Porto Acre,,-67.5405900835,-9.6008582312,Porto Acre,,Rio Branco,Vale do Acre
1300029,AM,Amazonas,Alvarães,,-64.8135346776,-3.2165837691,Alvaraes,,Tefé,Centro Amazonense
1300060,AM,Amazonas,Amaturá,,-68.2096146409,-3.3668051875,Amatura,,Alto Solimões,Sudoeste Amazonense
1300086,AM,Amazonas,Anamã,,-61.4059034798,-3.5763704269,Anama,,Coari,Centro Amazonense
1300102,AM,Amazonas,Anori,,-61.6589553829,-3.7453855861,Anori,,Coari,Centro Amazonense
1300144,AM,Amazonas,Apuí,,-59.8856661047,-7.1978701516,Apui,,Madeira,Sul Amazonense
1300201,AM,Amazonas,Atalaia do Norte,,-70.1879892845,-4.3661574897,Atalaia do Norte,,Alto Solimões,Sudoeste Amazonense
1300300,AM,Amazonas,Autazes,,-59.1335670918,-3.5786636418,Autazes,,Manaus,Centro Amazonense
1300409,AM,Amazonas,Barcelos,,-62.9256696581,-0.9728010525,Barcelos,,Rio Negro,Norte Amazonense
1300508,AM,Amazonas,Barreirinha,,-57.0677504899,-2.7981498369,Barreirinha,,Parintins,Centro Amazonense
1300607,AM,Amazonas,Benjamin Constant,,-70.0273484333,-4.3749890186,Benjamin Constant,,Alto Solimões,Sudoeste Amazonense
1300631,AM,Amazonas,Beruri,,-61.3715708917,-3.8945134098,Beruri,,Coari,Centro Amazonense
1300680,AM,Amazonas,Boa Vista do Ramos,,-57.5877073465,-2.9717265316,Boa Vista do Ramos,,Parintins,Centro Amazonense
1300706,AM,Amazonas,Boca do Acre,,-67.3995777567,-8.7512431961,Boca do Acre,,Boca do Acre,Sul Amazonense
1300805,AM,Amazonas,Borba,,-59.5945590195,-4.3906198915,Borba,,Madeira,Sul Amazonense
1300839,AM,Amazonas,Caapiranga,,-61.2113341332,-3.3300933919,Caapiranga,,Coari,Centro Amazonense
1300904,AM,Amazonas,Canutama,,-64.3942308189,-6.5291060758,Canutama,,Purus,Sul Amazonense
1301001,AM,Amazonas,Carauari,,-66.8966352817,-4.8816659042,Carauari,,Juruá,Sudoeste Amazonense
1301100,AM,Amazonas,Careiro,,-60.3638098437,-3.82244727,Careiro,,Manaus,Centro Amazonense
1301159,AM,Amazonas,Careiro da Várzea,,-59.8263140608,-3.1973965949,Careiro da Varzea,,Manaus,Centro Amazonense
1301209,AM,Amazonas,Coari,,-63.1421839841,-4.0842191588,Coari,,Coari,Centro Amazonense
1301308,AM,Amazonas,Codajás,,-62.0634296605,-3.8430459327,Codajas,,Coari,Centro Amazonense
1301407,AM,Amazonas,Eirunepé,,-69.8662902624,-6.6673525669,Eirunepe,,Juruá,Sudoeste Amazonense
1301506,AM,Amazonas,Envira,,-70.030412543,-7.439817544,Envira,,Juruá,Sudoeste Amazonense
1301605,AM,Amazonas,Fonte Boa,,-66.0965029898,-2.5122706845,Fonte Boa,,Alto Solimões,Sudoeste Amazonense
1301654,AM,Amazonas,Guajará,,-72.5824305383,-7.5477744148,Guajara,,Juruá,Sudoeste Amazonense
1301704,AM,Amazonas,Humaitá,,-63.0266980219,-7.5122249506,Humaita,,Madeira,Sul Amazonense
1301803,AM,Amazonas,Ipixuna,,-71.6944180603,-7.0509801144,Ipixuna,,Juruá,Sudoeste Amazonense
1301852,AM,Amazonas,Iranduba,,-60.1933881661,-3.2810538776,Iranduba,,Manaus,Centro Amazonense
1301902,AM,Amazonas,Itacoatiara,,-58.4401754368,-3.1403788039,Itacoatiara,,Itacoatiara,Centro Amazonense
1301951,AM,Amazonas,Itamarati,,-68.247917436,-6.4377993486,Itamarati,,Juruá,Sudoeste Amazonense
1302009,AM,Amazonas,Itapiranga,,-58.034545884,-2.7418427523,Itapiranga,,Itacoatiara,Centro Amazonense
1302108,AM,Amazonas,Japurá,,-66.9969034946,-1.8808448587,Japura,,Japurá,Norte Amazonense
1302207,AM,Amazonas,Juruá,,-66.0630419255,-3.4748895989,Jurua,,Juruá,Sudoeste Amazonense
1302306,AM,Amazonas,Jutaí,,-66.7713275467,-2.7446464469,Jutai,,Alto Solimões,Sudoeste Amazonense
1302405,AM,Amazonas,Lábrea,,-64.7947730275,-7.2619465533,Labrea,,Purus,Sul Amazonense
1302504,AM,Amazonas,Manacapuru,,-60.6205894459,-3.2982780355,Manacapuru,,Manaus,Centro Amazonense
1302553,AM,Amazonas,Manaquiri,,-60.4588813064,-3.4290796694,Manaquiri,,Manaus,Centro Amazonense
1302603,AM,Amazonas,Manaus,true,-60.0233351811,-3.1346914912,Manaus,,Manaus,Centro Amazonense
1302702,AM,Amazonas,Manicoré,,-61.2992484089,-5.8132052612,Manicore,,Madeira,Sul Amazonense
1302801,AM,Amazonas,Maraã,,-65.5742837032,-1.8664368773,Maraa,,Japurá,Norte Amazonense
1302900,AM,Amazonas,Maués,,-57.7150343868,-3.3864279262,Maues,,Parintins,Centro Amazonense
1303007,AM,Amazonas,Nhamundá,,-56.7167699133,-2.1889837669,Nhamunda,,Parintins,Centro Amazonense
1303106,AM,Amazonas,Nova Olinda do Norte,,-59.093074026,-3.8875928319,Nova Olinda do Norte,,Itacoatiara,Centro Amazonense
1303205,AM,Amazonas,Novo Airão,,-60.9488107078,-2.623432459,Novo Airao,,Rio Negro,Norte Amazonense
1303304,AM,Amazonas,Novo Aripuanã,,-60.377045669,-5.1226693142,Novo Aripuana,,Madeira,Sul Amazonense
1303403,AM,Amazonas,Parintins,,-56.7362921452,-2.6270525858,Parintins,,Parintins,Centro Amazonense
1303502,AM,Amazonas,Pauini,,-67.0020974885,-7.7140436443,Pauini,,Boca do Acre,Sul Amazonense
1303536,AM,Amazonas,Presidente Figueiredo,,-60.0256468345,-2.0584290852,Presidente Figueiredo,,Rio Preto da Eva,Centro Amazonense
1303569,AM,Amazonas,Rio Preto da Eva,,-59.7047380942,-2.6933015416,Rio Preto da Eva,,Rio Preto da Eva,Centro Amazonense
1303601,AM,Amazonas,Santa Isabel do Rio Negro,,-65.0200226395,-0.4166948319,Santa Isabel do Rio Negro,,Rio Negro,Norte Amazonense
1303700,AM,Amazonas,Santo Antônio do Içá,,-67.9464851439,-3.1074863092,Santo Antonio do Ica,,Alto Solimões,Sudoeste Amazonense
1303809,AM,Amazonas,São Gabriel da Cachoeira,,-67.0836428963,-0.1364627881,Sao Gabriel da Cachoeira,,Rio Negro,Norte Amazonense
1303908,AM,Amazonas,São Paulo de Olivença,,-68.9448534881,-3.4665096235,Sao Paulo de Olivenca,,Alto Solimões,Sudoeste Amazonense
1303957,AM,Amazonas,São Sebastião do Uatumã,,-57.8703463558,-2.5701525797,Sao Sebastiao do Uatuma,,Parintins,Centro Amazonense
1304005,AM,Amazonas,Silves,,-58.2148008608,-2.8364274297,Silves,,Itacoatiara,Centro Amazonense
1304062,AM,Amazonas,Tabatinga,,-69.9462443752,-4.2318836756,Tabatinga,,Alto Solimões,Sudoeste Amazonense
1304104,AM,Amazonas,Tapauá,,-63.1870948672,-5.6242235178,Tapaua,,Purus,Sul Amazonense
1304203,AM,Amazonas,Tefé,,-64.7084196633,-3.3483724939,Tefe,,Tefé,Centro Amazonense
1304237,AM,Amazonas,Tonantins,,-67.7764822807,-2.8610912498,Tonantins,,Alto Solimões,Sudoeste Amazonense
1304260,AM,Amazonas,Uarini,,-65.1553456402,-2.9836092427,Uarini,,Tefé,Centro Amazonense
1304302,AM,Amazonas,Urucará,,-57.7598281746,-2.5366116718,Urucara,,Parintins,Centro Amazonense
1304401,AM,Amazonas,Urucurituba,,-58.1596410413,-3.1346331156,Urucurituba,,Itacoatiara,Centro Amazonense
1400027,RR,Roraima,Amajari,,-61.4205901727,3.6521184454,Amajari,,Boa Vista,Norte de Roraima
1400050,RR,Roraima,Alto Alegre,,-61.3140223901,2.9938229477,Alto Alegre,,Boa Vista,Norte de Roraima
1400100,RR,Roraima,Boa Vista,true,-60.670532673,2.8166819191,Boa Vista,,Boa Vista,Norte de Roraima
1400159,RR,Roraima,Bonfim,,-59.8780066289,3.3502886191,Bonfim,,Nordeste de Roraima,Norte de Roraima
1400175,RR,Roraima,Cantá,,-60.6020628476,2.6076663984,Canta,,Nordeste de Roraima,Norte de Roraima
1400209,RR,Roraima,Caracaraí,,-61.1491768701,1.8038712473,Caracarai,,Caracaraí,Sul de Roraima
1400233,RR,Roraima,Caroebe,,-59.6948100737,0.8726745072,Caroebe,,Sudeste de Roraima,Sul de Roraima
1400282,RR,Roraima,Iracema,,-61.052258585,2.1682147652,Iracema,,Caracaraí,Sul de Roraima
1400308,RR,Roraima,Mucajaí,,-60.9115185306,2.4797722351,Mucajai,,Caracaraí,Sul de Roraima
1400407,RR,Roraima,Normandia,,-59.6352062836,3.8829782853,Normandia,,Nordeste de Roraima,Norte de Roraima
1400456,RR,Roraima,Pacaraima,,-61.1473063471,4.4752593402,Pacaraima,,Boa Vista,Norte de Roraima
1400472,RR,Roraima,Rorainópolis,,-60.425060494,0.9371953936,Rorainopolis,,Sudeste de Roraima,Sul de Roraima
1400506,RR,Roraima,São João da Baliza,,-59.9060443452,0.9471574275,Sao Joao da Baliza,,Sudeste de Roraima,Sul de Roraima
1400605,RR,Roraima,São Luiz,,-60.0282667742,1.0181116274,Sao Luiz,,Sudeste de Roraima,Sul de Roraima
1400704,RR,Roraima,Uiramutã,,-60.195716148,4.5854403875,Uiramuta,,Nordeste de Roraima,Norte de Roraima
1500107,PA,Pará,Abaetetuba,,-48.8844038207,-1.7234698628,Abaetetuba,,Cametá,Nordeste Paraense
1500131,PA,Pará,Abel Figueiredo,,-48.3967621258,-4.9513908955,Abel Figueiredo,,Paragominas,Sudeste Paraense
1500206,PA,Pará,Acará,,-48.2004564318,-1.9634365,Acara,,Tomé-Açu,Nordeste Paraense
1500305,PA,Pará,Afuá,,-50.3914275892,-0.1591716938,Afua,,Furos de Breves,Marajó
1500347,PA,Pará,Água Azul do Norte,,-50.4852745073,-6.8049488674,Agua Azul do Norte,,Parauapebas,Sudeste Paraense
1500404,PA,Pará,Alenquer,,-54.7408623502,-1.951397505,Alenquer,,Santarém,Baixo Amazonas
1500503,PA,Pará,Almeirim,,-52.5768350868,-1.5273388028,Almeirim,,Almeirim,Baixo Amazonas
1500602,PA,Pará,Altamira,,-52.2143763052,-3.20565951,Altamira,,Altamira,Sudoeste Paraense
1500701,PA,Pará,Anajás,,-49.9450010405,-0.984451394,Anajas,,Furos de Breves,Marajó
1500800,PA,Pará,Ananindeua,,-48.3720666542,-1.3687135683,Ananindeua,,Belém,Metropolitana de Belém
1500859,PA,Pará,Anapu,,-51.2016217985,-3.4761046351,Anapu,,Altamira,Sudoeste Paraense
1500909,PA,Pará,Augusto Corrêa,,-46.6416457857,-1.02292101,Augusto Correa,,Bragantina,Nordeste Paraense
1500958,PA,Pará,Aurora do Pará,,-47.5561746036,-2.1293760132,Aurora do Para,,Guamá,Nordeste Paraense
1501006,PA,Pará,Aveiro,,-55.3307343898,-3.6055952593,Aveiro,,Itaituba,Sudoeste Paraense
1501105,PA,Pará,Bagre,,-50.2219869206,-1.8898080604,Bagre,,Portel,Marajó
1501204,PA,Pará,Baião,,-49.6727533733,-2.7919618614,Baiao,,Cametá,Nordeste Paraense
1501253,PA,Pará,Bannach,,-50.4060471215,-7.3510721924,Bannach,,São Félix do Xingu,Sudeste Paraense
1501303,PA,Pará,Barcarena,,-48.6270728925,-1.505767005,Barcarena,,Belém,Metropolitana de Belém
1501402,PA,Pará,Belém,true,-48.4878256875,-1.459845,Belem,,Belém,Metropolitana de Belém
1501451,PA,Pará,Belterra,,-54.9426747393,-2.6490201695,Belterra,,Santarém,Baixo Amazonas
1501501,PA,Pará,Benevides,,-48.2418364506,-1.361437515,Benevides,,Belém,Metropolitana de Belém
1501576,PA,Pará,Bom Jesus do Tocantins,,-48.5990399591,-5.0473627043,Bom Jesus do Tocantins,,Paragominas,Sudeste Paraense
1501600,PA,Pará,Bonito,,-47.3058918169,-1.3674743569,Bonito,,Bragantina,Nordeste Paraense
1501709,PA,Pará,Bragança,,-46.7657542137,-1.0535239562,Braganca,,Bragantina,Nordeste Paraense
1501725,PA,Pará,Brasil Novo,,-52.5434411923,-3.297803704,Brasil Novo,,Altamira,Sudoeste Paraense
1501758,PA,Pará,Brejo Grande do Araguaia,,-48.4057604224,-5.7072961538,Brejo Grande do Araguaia,,Marabá,Sudeste Paraense
1501782,PA,Pará,Breu Branco,,-49.5698796833,-3.7781354129,Breu Branco,,Tucuruí,Sudeste Paraense
1501808,PA,Pará,Breves,,-50.480894799,-1.6907365,Breves,,Furos de Breves,Marajó
1501907,PA,Pará,Bujaru,,-48.0358750144,-1.5139914623,Bujaru,,Castanhal,Metropolitana de Belém
1501956,PA,Pará,Cachoeira do Piriá,,-46.5473914166,-1.7528970049,Cachoeira do Piria,,Guamá,Nordeste Paraense
1502004,PA,Pará,Cachoeira do Arari,,-48.9606675774,-1.0087862656,Cachoeira do Arari,,Arari,Marajó
1502103,PA,Pará,Cametá,,-49.497830169,-2.24683848,Cameta,,Cametá,Nordeste Paraense
1502152,PA,Pará,Canaã dos Carajás,,-49.8489584319,-6.5321966156,Canaa dos Carajas,,Parauapebas,Sudeste Paraense
1502202,PA,Pará,Capanema,,-47.1751261231,-1.192441995,Capanema,,Bragantina,Nordeste Paraense
1502301,PA,Pará,Capitão Poço,,-47.0628253774,-1.7461872932,Capitao Poco,,Guamá,Nordeste Paraense
1502400,PA,Pará,Castanhal,,-47.9266431419,-1.295756805,Castanhal,,Castanhal,Metropolitana de Belém
1502509,PA,Pará,Chaves,,-49.9893186051,-0.1624372901,Chaves,,Arari,Marajó
1502608,PA,Pará,Colares,,-48.2887284319,-0.932091244,Colares,,Salgado,Nordeste Paraense
1502707,PA,Pará,Conceição do Araguaia,,-49.2645008125,-8.26486353,Conceicao do Araguaia,,Conceição do Araguaia,Sudeste Paraense
1502756,PA,Pará,Concórdia do Pará,,-47.949886939,-1.9845214628,Concordia do Para,,Tomé-Açu,Nordeste Paraense
1502764,PA,Pará,Cumaru do Norte,,-50.7715783775,-7.8111065369,Cumaru do Norte,,São Félix do Xingu,Sudeste Paraense
1502772,PA,Pará,Curionópolis,,-49.602214225,-6.0968199522,Curionopolis,,Parauapebas,Sudeste Paraense
1502806,PA,Pará,Curralinho,,-49.7915228471,-1.8094234197,Curralinho,,Furos de Breves,Marajó
1502855,PA,Pará,Curuá,,-55.1196786087,-1.8899287043,Curua,,Santarém,Baixo Amazonas
1502905,PA,Pará,Curuçá,,-47.8512650859,-0.73249551,Curuca,,Salgado,Nordeste Paraense
1502939,PA,Pará,Dom Eliseu,,-47.555914886,-4.29077772,Dom Eliseu,,Paragominas,Sudeste Paraense
1502954,PA,Pará,Eldorado dos Carajás,,-49.3739519422,-6.1035251611,Eldorado dos Carajas,,Parauapebas,Sudeste Paraense
1503002,PA,Pará,Faro,,-56.7457530173,-2.1729752419,Faro,,Óbidos,Baixo Amazonas
1503044,PA,Pará,Floresta do Araguaia,,-49.6975784122,-7.5587008724,Floresta do Araguaia,,Conceição do Araguaia,Sudeste Paraense
1503077,PA,Pará,Garrafão do Norte,,-47.0450460173,-1.9316970431,Garrafao do Norte,,Guamá,Nordeste Paraense
1503093,PA,Pará,Goianésia do Pará,,-49.1010449237,-3.842468,Goianesia do Para,,Paragominas,Sudeste Paraense
1503101,PA,Pará,Gurupá,,-51.6436957234,-1.404918,Gurupa,,Portel,Marajó
1503200,PA,Pará,Igarapé-Açu,,-47.622375492,-1.124322,Igarape-Acu,,Bragantina,Nordeste Paraense
1503309,PA,Pará,Igarapé-Miri,,-48.9622994689,-1.983116,Igarape-Miri,,Cametá,Nordeste Paraense
1503408,PA,Pará,Inhangapi,,-47.9133927466,-1.4265819809,Inhangapi,,Castanhal,Metropolitana de Belém
1503457,PA,Pará,Ipixuna do Pará,,-47.4997175888,-2.5575285,Ipixuna do Para,,Guamá,Nordeste Paraense
1503507,PA,Pará,Irituia,,-47.4407556128,-1.771474995,Irituia,,Guamá,Nordeste Paraense
1503606,PA,Pará,Itaituba,,-55.9900488573,-4.26372948,Itaituba,,Itaituba,Sudoeste Paraense
1503705,PA,Pará,Itupiranga,,-49.3244258613,-5.1288370264,Itupiranga,,Tucuruí,Sudeste Paraense
1503754,PA,Pará,Jacareacanga,,-57.7663398584,-6.2235517314,Jacareacanga,,Itaituba,Sudoeste Paraense
1503804,PA,Pará,Jacundá,,-49.1127815626,-4.448405475,Jacunda,,Tucuruí,Sudeste Paraense
1503903,PA,Pará,Juruti,,-56.0949976884,-2.155252995,Juruti,,Óbidos,Baixo Amazonas
1504000,PA,Pará,Limoeiro do Ajuru,,-49.3815339012,-1.8919485,Limoeiro do Ajuru,,Cametá,Nordeste Paraense
1504059,PA,Pará,Mãe do Rio,,-47.5522901795,-2.0477074408,Mae do Rio,,Guamá,Nordeste Paraense
1504109,PA,Pará,Magalhães Barata,,-47.5991818965,-0.795850156,Magalhaes Barata,,Salgado,Nordeste Paraense
1504208,PA,Pará,Marabá,,-49.1420253334,-5.3526057631,Maraba,,Marabá,Sudeste Paraense
1504307,PA,Pará,Maracanã,,-47.4552679594,-0.76241946,Maracana,,Salgado,Nordeste Paraense
1504406,PA,Pará,Marapanim,,-47.7025487538,-0.7121509963,Marapanim,,Salgado,Nordeste Paraense
1504422,PA,Pará,Marituba,,-48.3405358778,-1.3464172656,Marituba,,Belém,Metropolitana de Belém
1504455,PA,Pará,Medicilândia,,-52.8883453507,-3.4454174122,Medicilandia,,Altamira,Sudoeste Paraense
1504505,PA,Pará,Melgaço,,-50.7174646977,-1.8034466986,Melgaco,,Portel,Marajó
1504604,PA,Pará,Mocajuba,,-49.5090234613,-2.5828729733,Mocajuba,,Cametá,Nordeste Paraense
1504703,PA,Pará,Moju,,-48.7671991274,-1.885889,Moju,,Tomé-Açu,Nordeste Paraense
1504802,PA,Pará,Monte Alegre,,-54.0733747256,-2.003328,Monte Alegre,,Santarém,Baixo Amazonas
1504901,PA,Pará,Muaná,,-49.2168324425,-1.5300262084,Muana,,Arari,Marajó
1504950,PA,Pará,Nova Esperança do Piriá,,-46.9620928837,-2.267625989,Nova Esperanca do Piria,,Guamá,Nordeste Paraense
1504976,PA,Pará,Nova Ipixuna,,-49.079886938,-4.923086307,Nova Ipixuna,,Tucuruí,Sudeste Paraense
1505007,PA,Pará,Nova Timboteua,,-47.3932022765,-1.2041436475,Nova Timboteua,,Bragantina,Nordeste Paraense
1505031,PA,Pará,Novo Progresso,,-55.419870118,-7.0348359133,Novo Progresso,,Itaituba,Sudoeste Paraense
1505064,PA,Pará,Novo Repartimento,,-49.9486382443,-4.2481485,Novo Repartimento,,Tucuruí,Sudeste Paraense
1505106,PA,Pará,Óbidos,,-55.5163235097,-1.9092354959,Obidos,,Óbidos,Baixo Amazonas
1505205,PA,Pará,Oeiras do Pará,,-49.8551061088,-2.004734,Oeiras do Para,,Cametá,Nordeste Paraense
1505304,PA,Pará,Oriximiná,,-55.8627995152,-1.7637535,Oriximina,,Óbidos,Baixo Amazonas
1505403,PA,Pará,Ourém,,-47.1176193629,-1.5489471423,Ourem,,Guamá,Nordeste Paraense
1505437,PA,Pará,Ourilândia do Norte,,-51.0908327747,-6.7406170864,Ourilandia do Norte,,São Félix do Xingu,Sudeste Paraense
1505486,PA,Pará,Pacajá,,-50.6348408304,-3.8303057038,Pacaja,,Altamira,Sudoeste Paraense
1505494,PA,Pará,Palestina do Pará,,-48.3217937262,-5.7499341062,Palestina do Para,,Marabá,Sudeste Paraense
1505502,PA,Pará,Paragominas,,-47.3569615611,-2.9941905,Paragominas,,Paragominas,Sudeste Paraense
1505536,PA,Pará,Parauapebas,,-49.9007806343,-6.0727298876,Parauapebas,,Parauapebas,Sudeste Paraense
1505551,PA,Pará,Pau D'Arco,,-50.0482755319,-7.836794404,Pau D'Arco,,Redenção,Sudeste Paraense
1505601,PA,Pará,Peixe-Boi,,-47.3179270216,-1.1895692408,Peixe-Boi,,Bragantina,Nordeste Paraense
1505635,PA,Pará,Piçarra,,-48.8684006672,-6.4536762346,Picarra,,Redenção,Sudeste Paraense
1505650,PA,Pará,Placas,,-54.2169681313,-3.8673155621,Placas,,Santarém,Baixo Amazonas
1505700,PA,Pará,Ponta de Pedras,,-48.87178556,-1.3965999975,Ponta de Pedras,,Arari,Marajó
1505809,PA,Pará,Portel,,-50.8224904422,-1.936451,Portel,,Portel,Marajó
1505908,PA,Pará,Porto de Moz,,-52.242476919,-1.7460900888,Porto de Moz,,Almeirim,Baixo Amazonas
1506005,PA,Pará,Prainha,,-53.4818139408,-1.8056945,Prainha,,Santarém,Baixo Amazonas
1506104,PA,Pará,Primavera,,-47.1172512589,-0.9401115159,Primavera,,Bragantina,Nordeste Paraense
1506112,PA,Pará,Quatipuru,,-47.0067869936,-0.9001158537,Quatipuru,,Bragantina,Nordeste Paraense
1506138,PA,Pará,Redenção,,-50.0296418255,-8.0276045,Redencao,,Redenção,Sudeste Paraense
1506161,PA,Pará,Rio Maria,,-50.0464108775,-7.3111152447,Rio Maria,,Redenção,Sudeste Paraense
1506187,PA,Pará,Rondon do Pará,,-48.0699737494,-4.777821727,Rondon do Para,,Paragominas,Sudeste Paraense
1506195,PA,Pará,Rurópolis,,-54.9058622599,-4.09906539,Ruropolis,,Itaituba,Sudoeste Paraense
1506203,PA,Pará,Salinópolis,,-47.3531202632,-0.623638,Salinopolis,,Salgado,Nordeste Paraense
1506302,PA,Pará,Salvaterra,,-48.5131865994,-0.7545259744,Salvaterra,,Arari,Marajó
1506351,PA,Pará,Santa Bárbara do Pará,,-48.2977406498,-1.229439467,Santa Barbara do Para,,Belém,Metropolitana de Belém
1506401,PA,Pará,Santa Cruz do Arari,,-49.1716155661,-0.6599741256,Santa Cruz do Arari,,Arari,Marajó
1506500,PA,Pará,Santa Isabel do Pará,,-48.163059941,-1.2973959013,Santa Isabel do Para,,Castanhal,Metropolitana de Belém
1506559,PA,Pará,Santa Luzia do Pará,,-46.9061692027,-1.5188278914,Santa Luzia do Para,,Guamá,Nordeste Paraense
1506583,PA,Pará,Santa Maria das Barreiras,,-49.7193518572,-8.8705505397,Santa Maria das Barreiras,,Conceição do Araguaia,Sudeste Paraense
1506609,PA,Pará,Santa Maria do Pará,,-47.5746954138,-1.3478664593,Santa Maria do Para,,Bragantina,Nordeste Paraense
1506708,PA,Pará,Santana do Araguaia,,-50.3448043211,-9.329424525,Santana do Araguaia,,Conceição do Araguaia,Sudeste Paraense
1506807,PA,Pará,Santarém,,-54.7185701673,-2.43621333,Santarem,,Santarém,Baixo Amazonas
1506906,PA,Pará,Santarém Novo,,-47.4009247449,-0.9287195358,Santarem Novo,,Bragantina,Nordeste Paraense
1507003,PA,Pará,Santo Antônio do Tauá,,-48.1324330748,-1.1516925,Santo Antonio do Taua,,Castanhal,Metropolitana de Belém
1507102,PA,Pará,São Caetano de Odivelas,,-48.0258054981,-0.74661776,Sao Caetano de Odivelas,,Salgado,Nordeste Paraense
1507151,PA,Pará,São Domingos do Araguaia,,-48.7203734108,-5.549841,Sao Domingos do Araguaia,,Marabá,Sudeste Paraense
1507201,PA,Pará,São Domingos do Capim,,-47.7747845692,-1.6758145,Sao Domingos do Capim,,Guamá,Nordeste Paraense
1507300,PA,Pará,São Félix do Xingu,,-51.993782524,-6.6424832783,Sao Felix do Xingu,,São Félix do Xingu,Sudeste Paraense
1507409,PA,Pará,São Francisco do Pará,,-47.7905146107,-1.1701887847,Sao Francisco do Para,,Bragantina,Nordeste Paraense
1507458,PA,Pará,São Geraldo do Araguaia,,-48.5557124862,-6.39895797,Sao Geraldo do Araguaia,,Redenção,Sudeste Paraense
1507466,PA,Pará,São João da Ponta,,-47.9207241656,-0.8510021453,Sao Joao da Ponta,,Salgado,Nordeste Paraense
1507474,PA,Pará,São João de Pirabas,,-47.1726742979,-0.7664425315,Sao Joao de Pirabas,,Salgado,Nordeste Paraense
1507508,PA,Pará,São João do Araguaia,,-48.788633402,-5.3590027244,Sao Joao do Araguaia,,Marabá,Sudeste Paraense
1507607,PA,Pará,São Miguel do Guamá,,-47.4824089445,-1.6171359145,Sao Miguel do Guama,,Guamá,Nordeste Paraense
1507706,PA,Pará,São Sebastião da Boa Vista,,-49.5323121746,-1.7188505,Sao Sebastiao da Boa Vista,,Furos de Breves,Marajó
1507755,PA,Pará,Sapucaia,,-49.7035807119,-6.9428571126,Sapucaia,,Redenção,Sudeste Paraense
1507805,PA,Pará,Senador José Porfírio,,-51.953056418,-2.5948504183,Senador Jose Porfirio,,Altamira,Sudoeste Paraense
1507904,PA,Pará,Soure,,-48.5160126623,-0.7259255,Soure,,Arari,Marajó
1507953,PA,Pará,Tailândia,,-48.9512816296,-2.9370795,Tailandia,,Tomé-Açu,Nordeste Paraense
1507961,PA,Pará,Terra Alta,,-47.9078083484,-1.0348266636,Terra Alta,,Salgado,Nordeste Paraense
1507979,PA,Pará,Terra Santa,,-56.4909047722,-2.1081144737,Terra Santa,,Óbidos,Baixo Amazonas
1508001,PA,Pará,Tomé-Açu,,-48.1468965866,-2.4193668553,Tome-Acu,,Tomé-Açu,Nordeste Paraense
1508035,PA,Pará,Tracuateua,,-46.8994783371,-1.0687840586,Tracuateua,,Bragantina,Nordeste Paraense
1508050,PA,Pará,Trairão,,-55.9961700349,-4.6998191497,Trairao,,Itaituba,Sudoeste Paraense
1508084,PA,Pará,Tucumã,,-51.1395392466,-6.7499720074,Tucuma,,São Félix do Xingu,Sudeste Paraense
1508100,PA,Pará,Tucuruí,,-49.6671843672,-3.7668890843,Tucurui,,Tucuruí,Sudeste Paraense
1508126,PA,Pará,Ulianópolis,,-47.503144755,-3.75719301,Ulianopolis,,Paragominas,Sudeste Paraense
1508159,PA,Pará,Uruará,,-53.7370310505,-3.7065285,Uruara,,Altamira,Sudoeste Paraense
1508209,PA,Pará,Vigia,,-48.1414985852,-0.8555325737,Vigia,,Salgado,Nordeste Paraense
1508308,PA,Pará,Viseu,,-46.1387652161,-1.2032785267,Viseu,,Guamá,Nordeste Paraense
1508357,PA,Pará,Vitória do Xingu,,-52.0112603538,-2.8837657102,Vitoria do Xingu,,Altamira,Sudoeste Paraense
1508407,PA,Pará,Xinguara,,-49.9427005844,-7.1015128271,Xinguara,,Redenção,Sudeste Paraense
1600055,AP,Amapá,Serra do Navio,,-52.0035384353,0.897841041,Serra do Navio,,Macapá,Sul do Amapá
1600105,AP,Amapá,Amapá,,-50.7932144703,2.0539212447,Amapa,,Amapá,Norte do Amapá
1600154,AP,Amapá,Pedra Branca do Amapari,,-51.9465942733,0.7768828606,Pedra Branca do Amapari,,Macapá,Sul do Amapá
1600204,AP,Amapá,Calçoene,,-50.9447727343,2.4965590446,Calcoene,,Oiapoque,Norte do Amapá
1600212,AP,Amapá,Cutias,,-50.8016260299,0.9710780554,Cutias,,Macapá,Sul do Amapá
1600238,AP,Amapá,Ferreira Gomes,,-51.187429046,0.8539773931,Ferreira Gomes,,Macapá,Sul do Amapá
1600253,AP,Amapá,Itaubal,,-50.7001794374,0.6006532883,Itaubal,,Macapá,Sul do Amapá
1600279,AP,Amapá,Laranjal do Jari,,-52.5390207369,-0.8556645,Laranjal do Jari,,Mazagão,Sul do Amapá
1600303,AP,Amapá,Macapá,true,-51.057405457,0.03895101,Macapa,,Macapá,Sul do Amapá
1600402,AP,Amapá,Mazagão,,-51.2860768561,-0.1243963288,Mazagao,,Mazagão,Sul do Amapá
1600501,AP,Amapá,Oiapoque,,-51.8305525553,3.8511307326,Oiapoque,,Oiapoque,Norte do Amapá
1600535,AP,Amapá,Porto Grande,,-51.414448823,0.7125547018,Porto Grande,,Macapá,Sul do Amapá
1600550,AP,Amapá,Pracuúba,,-50.7842537213,1.7425084871,Pracuuba,,Amapá,Norte do Amapá
1600600,AP,Amapá,Santana,,-51.1728464651,-0.0383734791,Santana,,Macapá,Sul do Amapá
1600709,AP,Amapá,Tartarugalzinho,,-50.9127861523,1.5098482403,Tartarugalzinho,,Amapá,Norte do Amapá
1600808,AP,Amapá,Vitória do Jari,,-52.4196147796,-0.9189770885,Vitoria do Jari,,Mazagão,Sul do Amapá
1700251,TO,Tocantins,Abreulândia,,-49.1624375555,-9.621790712,Abreulandia,,Miracema do Tocantins,Ocidental do Tocantins
1700301,TO,Tocantins,Aguiarnópolis,,-47.4704565879,-6.5471708206,Aguiarnopolis,,Bico do Papagaio,Ocidental do Tocantins
1700350,TO,Tocantins,Aliança do Tocantins,,-48.9412400221,-11.3037430465,Alianca do Tocantins,,Gurupi,Ocidental do Tocantins
1700400,TO,Tocantins,Almas,,-47.1741716842,-11.5745234694,Almas,,Dianópolis,Oriental do Tocantins
1700707,TO,Tocantins,Alvorada,,-49.1268114067,-12.4788153208,Alvorada,,Gurupi,Ocidental do Tocantins
1701002,TO,Tocantins,Ananás,,-48.0797646062,-6.3628181541,Ananas,,Bico do Papagaio,Ocidental do Tocantins
1701051,TO,Tocantins,Angico,,-47.8620778392,-6.3877527497,Angico,,Bico do Papagaio,Ocidental do Tocantins
1701101,TO,Tocantins,Aparecida do Rio Negro,,-47.9766700114,-9.9558777146,Aparecida do Rio Negro,,Porto Nacional,Oriental do Tocantins
1701309,TO,Tocantins,Aragominas,,-48.5234301923,-7.1643492714,Aragominas,,Araguaína,Ocidental do Tocantins
1701903,TO,Tocantins,Araguacema,,-49.5618126396,-8.8018025441,Araguacema,,Miracema do Tocantins,Ocidental do Tocantins
1702000,TO,Tocantins,Araguaçu,,-49.8286124433,-12.9255837119,Araguacu,,Rio Formoso,Ocidental do Tocantins
1702109,TO,Tocantins,Araguaína,,-48.2087052519,-7.1913289397,Araguaina,,Araguaína,Ocidental do Tocantins
1702158,TO,Tocantins,Araguanã,,-48.6437495469,-6.58224942,Araguana,,Araguaína,Ocidental do Tocantins
1702208,TO,Tocantins,Araguatins,,-48.123507343,-5.650586473,Araguatins,,Bico do Papagaio,Ocidental do Tocantins
1702307,TO,Tocantins,Arapoema,,-49.0756373853,-7.6525697354,Arapoema,,Araguaína,Ocidental do Tocantins
1702406,TO,Tocantins,Arraias,,-46.9461070586,-12.9344198593,Arraias,,Dianópolis,Oriental do Tocantins
1702554,TO,Tocantins,Augustinópolis,,-47.880956791,-5.4654142959,Augustinopolis,,Bico do Papagaio,Ocidental do Tocantins
1702703,TO,Tocantins,Aurora do Tocantins,,-46.4070829809,-12.7084898611,Aurora do Tocantins,,Dianópolis,Oriental do Tocantins
1702901,TO,Tocantins,Axixá do Tocantins,,-47.7741560325,-5.6243090659,Axixa do Tocantins,,Bico do Papagaio,Ocidental do Tocantins
1703008,TO,Tocantins,Babaçulândia,,-47.758816127,-7.2018645321,Babaculandia,,Araguaína,Ocidental do Tocantins
1703057,TO,Tocantins,Bandeirantes do Tocantins,,-48.5783806049,-7.7648591413,Bandeirantes do Tocantins,,Araguaína,Ocidental do Tocantins
1703073,TO,Tocantins,Barra do Ouro,,-47.6871349692,-7.6917665987,Barra do Ouro,,Jalapão,Oriental do Tocantins
1703107,TO,Tocantins,Barrolândia,,-48.7314605907,-9.8316533645,Barrolandia,,Miracema do Tocantins,Ocidental do Tocantins
1703206,TO,Tocantins,Bernardo Sayão,,-48.8990543467,-7.8685124833,Bernardo Sayao,,Miracema do Tocantins,Ocidental do Tocantins
1703305,TO,Tocantins,Bom Jesus do Tocantins,,-48.1663804935,-8.9633480129,Bom Jesus do Tocantins,,Porto Nacional,Oriental do Tocantins
1703602,TO,Tocantins,Brasilândia do Tocantins,,-48.4853744191,-8.3848893511,Brasilandia do Tocantins,,Miracema do Tocantins,Ocidental do Tocantins
1703701,TO,Tocantins,Brejinho de Nazaré,,-48.5586602282,-11.0108050562,Brejinho de Nazare,,Gurupi,Ocidental do Tocantins
1703800,TO,Tocantins,Buriti do Tocantins,,-48.2232501281,-5.3135388564,Buriti do Tocantins,,Bico do Papagaio,Ocidental do Tocantins
1703826,TO,Tocantins,Cachoeirinha,,-47.9141977786,-6.1132416465,Cachoeirinha,,Bico do Papagaio,Ocidental do Tocantins
1703842,TO,Tocantins,Campos Lindos,,-46.8019743467,-7.9716813941,Campos Lindos,,Jalapão,Oriental do Tocantins
1703867,TO,Tocantins,Cariri do Tocantins,,-49.171040729,-11.8889974639,Cariri do Tocantins,,Gurupi,Ocidental do Tocantins
1703883,TO,Tocantins,Carmolândia,,-48.3959599306,-7.0314787779,Carmolandia,,Araguaína,Ocidental do Tocantins
1703891,TO,Tocantins,Carrasco Bonito,,-48.0306334266,-5.3226613549,Carrasco Bonito,,Bico do Papagaio,Ocidental do Tocantins
1703909,TO,Tocantins,Caseara,,-49.9486922678,-9.2674062189,Caseara,,Miracema do Tocantins,Ocidental do Tocantins
1704105,TO,Tocantins,Centenário,,-47.3383985146,-8.9584636391,Centenario,,Jalapão,Oriental do Tocantins
1704600,TO,Tocantins,Chapada de Areia,,-49.183107858,-10.1419885833,Chapada de Areia,,Rio Formoso,Ocidental do Tocantins
1705102,TO,Tocantins,Chapada da Natividade,,-47.7539048919,-11.6242678314,Chapada da Natividade,,Dianópolis,Oriental do Tocantins
1705508,TO,Tocantins,Colinas do Tocantins,,-48.4815945437,-8.0546246755,Colinas do Tocantins,,Araguaína,Ocidental do Tocantins
1705557,TO,Tocantins,Combinado,,-46.5520723403,-12.818607672,Combinado,,Dianópolis,Oriental do Tocantins
1705607,TO,Tocantins,Conceição do Tocantins,,-47.2928688108,-12.217277767,Conceicao do Tocantins,,Dianópolis,Oriental do Tocantins
1706001,TO,Tocantins,Couto Magalhães,,-49.1765715709,-8.3551183696,Couto Magalhaes,,Miracema do Tocantins,Ocidental do Tocantins
1706100,TO,Tocantins,Cristalândia,,-49.1863002913,-10.5907246371,Cristalandia,,Rio Formoso,Ocidental do Tocantins
1706258,TO,Tocantins,Crixás do Tocantins,,-48.9155138256,-11.1042742936,Crixas do Tocantins,,Gurupi,Ocidental do Tocantins
1706506,TO,Tocantins,Darcinópolis,,-47.7521611103,-6.7123510015,Darcinopolis,,Bico do Papagaio,Ocidental do Tocantins
1707009,TO,Tocantins,Dianópolis,,-46.8204090669,-11.6252318781,Dianopolis,,Dianópolis,Oriental do Tocantins
1707108,TO,Tocantins,Divinópolis do Tocantins,,-49.2054131874,-9.7953011402,Divinopolis do Tocantins,,Miracema do Tocantins,Ocidental do Tocantins
1707207,TO,Tocantins,Dois Irmãos do Tocantins,,-49.0673386443,-9.2612967098,Dois Irmaos do Tocantins,,Miracema do Tocantins,Ocidental do Tocantins
1707306,TO,Tocantins,Dueré,,-49.2658759162,-11.3412854168,Duere,,Rio Formoso,Ocidental do Tocantins
1707405,TO,Tocantins,Esperantina,,-48.5441476004,-5.3666080594,Esperantina,,Bico do Papagaio,Ocidental do Tocantins
1707553,TO,Tocantins,Fátima,,-48.8989826587,-10.7525087281,Fatima,,Rio Formoso,Ocidental do Tocantins
1707652,TO,Tocantins,Figueirópolis,,-49.1738467307,-12.1367799832,Figueiropolis,,Gurupi,Ocidental do Tocantins
1707702,TO,Tocantins,Filadélfia,,-47.4849641415,-7.3376119059,Filadelfia,,Araguaína,Ocidental do Tocantins
1708205,TO,Tocantins,Formoso do Araguaia,,-49.5268603629,-11.8051419686,Formoso do Araguaia,,Rio Formoso,Ocidental do Tocantins
1708254,TO,Tocantins,Fortaleza do Tabocão,,-48.517426421,-9.0589653011,Fortaleza do Tabocao,,Miracema do Tocantins,Ocidental do Tocantins
1708304,TO,Tocantins,Goianorte,,-48.9368901924,-8.7705208048,Goianorte,,Miracema do Tocantins,Ocidental do Tocantins
1709005,TO,Tocantins,Goiatins,,-47.3154354892,-7.7091723902,Goiatins,,Jalapão,Oriental do Tocantins
1709302,TO,Tocantins,Guaraí,,-48.5086406065,-8.8361656575,Guarai,,Miracema do Tocantins,Ocidental do Tocantins
1709500,TO,Tocantins,Gurupi,,-49.0714774689,-11.7297723229,Gurupi,,Gurupi,Ocidental do Tocantins
1709807,TO,Tocantins,Ipueiras,,-48.4519262289,-11.2462886216,Ipueiras,,Porto Nacional,Oriental do Tocantins
1710508,TO,Tocantins,Itacajá,,-47.7681124027,-8.3909805523,Itacaja,,Jalapão,Oriental do Tocantins
1710706,TO,Tocantins,Itaguatins,,-47.479935949,-5.7753850884,Itaguatins,,Bico do Papagaio,Ocidental do Tocantins
1710904,TO,Tocantins,Itapiratins,,-48.1111996095,-8.3843295934,Itapiratins,,Jalapão,Oriental do Tocantins
1711100,TO,Tocantins,Itaporã do Tocantins,,-48.6932637032,-8.5688286116,Itapora do Tocantins,,Miracema do Tocantins,Ocidental do Tocantins
1711506,TO,Tocantins,Jaú do Tocantins,,-48.5946082927,-12.6529263693,Jau do Tocantins,,Gurupi,Ocidental do Tocantins
1711803,TO,Tocantins,Juarina,,-49.0986431854,-8.1174239676,Juarina,,Miracema do Tocantins,Ocidental do Tocantins
1711902,TO,Tocantins,Lagoa da Confusão,,-49.6200853391,-10.7886955576,Lagoa da Confusao,,Rio Formoso,Ocidental do Tocantins
1711951,TO,Tocantins,Lagoa do Tocantins,,-47.5614466303,-10.296886697,Lagoa do Tocantins,,Jalapão,Oriental do Tocantins
1712009,TO,Tocantins,Lajeado,,-48.3585039507,-9.7446824357,Lajeado,,Porto Nacional,Oriental do Tocantins
1712157,TO,Tocantins,Lavandeira,,-46.5066757157,-12.7916587877,Lavandeira,,Dianópolis,Oriental do Tocantins
1712405,TO,Tocantins,Lizarda,,-46.6751654558,-9.5945702878,Lizarda,,Jalapão,Oriental do Tocantins
1712454,TO,Tocantins,Luzinópolis,,-47.8568280414,-6.1939896602,Luzinopolis,,Bico do Papagaio,Ocidental do Tocantins
1712504,TO,Tocantins,Marianópolis do Tocantins,,-49.6510339944,-9.7988803594,Marianopolis do Tocantins,,Miracema do Tocantins,Ocidental do Tocantins
1712702,TO,Tocantins,Mateiros,,-46.4124657431,-10.5444288461,Mateiros,,Jalapão,Oriental do Tocantins
1712801,TO,Tocantins,Maurilândia do Tocantins,,-47.5048799602,-5.9525664212,Maurilandia do Tocantins,,Bico do Papagaio,Ocidental do Tocantins
1713205,TO,Tocantins,Miracema do Tocantins,,-48.3879913115,-9.5683460776,Miracema do Tocantins,,Miracema do Tocantins,Ocidental do Tocantins
1713304,TO,Tocantins,Miranorte,,-48.5926319369,-9.5174047311,Miranorte,,Miracema do Tocantins,Ocidental do Tocantins
1713601,TO,Tocantins,Monte do Carmo,,-48.1104200299,-10.7635421946,Monte do Carmo,,Porto Nacional,Oriental do Tocantins
1713700,TO,Tocantins,Monte Santo do Tocantins,,-48.9908906034,-10.0055914318,Monte Santo do Tocantins,,Miracema do Tocantins,Ocidental do Tocantins
1713809,TO,Tocantins,Palmeiras do Tocantins,,-47.5586835263,-6.6118623346,Palmeiras do Tocantins,,Bico do Papagaio,Ocidental do Tocantins
1713957,TO,Tocantins,Muricilândia,,-48.606745277,-7.1385192852,Muricilandia,,Araguaína,Ocidental do Tocantins
1714203,TO,Tocantins,Natividade,,-47.7272575338,-11.7053573825,Natividade,,Dianópolis,Oriental do Tocantins
1714302,TO,Tocantins,Nazaré,,-47.6669771825,-6.3725579693,Nazare,,Bico do Papagaio,Ocidental do Tocantins
1714880,TO,Tocantins,Nova Olinda,,-48.42480679,-7.6333149107,Nova Olinda,,Araguaína,Ocidental do Tocantins
1715002,TO,Tocantins,Nova Rosalândia,,-48.9061807245,-10.5668711393,Nova Rosalandia,,Rio Formoso,Ocidental do Tocantins
1715101,TO,Tocantins,Novo Acordo,,-47.6681483922,-9.9684864657,Novo Acordo,,Jalapão,Oriental do Tocantins
1715150,TO,Tocantins,Novo Alegre,,-46.5772973537,-12.9099386744,Novo Alegre,,Dianópolis,Oriental do Tocantins
1715259,TO,Tocantins,Novo Jardim,,-46.6307872959,-11.8158750501,Novo Jardim,,Dianópolis,Oriental do Tocantins
1715507,TO,Tocantins,Oliveira de Fátima,,-48.9074015689,-10.7083627091,Oliveira de Fatima,,Rio Formoso,Ocidental do Tocantins
1715705,TO,Tocantins,Palmeirante,,-47.934249709,-7.8575613761,Palmeirante,,Araguaína,Ocidental do Tocantins
1715754,TO,Tocantins,Palmeirópolis,,-48.4134139552,-13.0398884337,Palmeiropolis,,Gurupi,Ocidental do Tocantins
1716109,TO,Tocantins,Paraíso do Tocantins,,-48.886630084,-10.171220755,Paraiso do Tocantins,,Rio Formoso,Ocidental do Tocantins
1716208,TO,Tocantins,Paranã,,-47.8840837284,-12.6204814887,Parana,,Dianópolis,Oriental do Tocantins
1716307,TO,Tocantins,Pau D'Arco,,-49.363306481,-7.5399983557,Pau D'Arco,,Araguaína,Ocidental do Tocantins
1716505,TO,Tocantins,Pedro Afonso,,-48.1775561127,-8.9644495924,Pedro Afonso,,Porto Nacional,Oriental do Tocantins
1716604,TO,Tocantins,Peixe,,-48.5378106263,-12.0297738309,Peixe,,Gurupi,Ocidental do Tocantins
1716653,TO,Tocantins,Pequizeiro,,-48.9351798669,-8.5933406544,Pequizeiro,,Miracema do Tocantins,Ocidental do Tocantins
1716703,TO,Tocantins,Colméia,,-48.7570665857,-8.7293718068,Colmeia,,Miracema do Tocantins,Ocidental do Tocantins
1717008,TO,Tocantins,Pindorama do Tocantins,,-47.5756877173,-11.1382025847,Pindorama do Tocantins,,Dianópolis,Oriental do Tocantins
1717206,TO,Tocantins,Piraquê,,-48.2937073911,-6.7697770334,Piraque,,Araguaína,Ocidental do Tocantins
1717503,TO,Tocantins,Pium,,-49.1666580116,-10.4409311179,Pium,,Rio Formoso,Ocidental do Tocantins
1717800,TO,Tocantins,Ponte Alta do Bom Jesus,,-46.4695867924,-12.0878129084,Ponte Alta do Bom Jesus,,Dianópolis,Oriental do Tocantins
1717909,TO,Tocantins,Ponte Alta do Tocantins,,-47.5411803583,-10.7406728487,Ponte Alta do Tocantins,,Jalapão,Oriental do Tocantins
1718006,TO,Tocantins,Porto Alegre do Tocantins,,-47.0474256004,-11.6072590991,Porto Alegre do Tocantins,,Dianópolis,Oriental do Tocantins
1718204,TO,Tocantins,Porto Nacional,,-48.4121534584,-10.708569917,Porto Nacional,,Porto Nacional,Oriental do Tocantins
1718303,TO,Tocantins,Praia Norte,,-47.8147317333,-5.3967128774,Praia Norte,,Bico do Papagaio,Ocidental do Tocantins
1718402,TO,Tocantins,Presidente Kennedy,,-48.5043306701,-8.5299608276,Presidente Kennedy,,Miracema do Tocantins,Ocidental do Tocantins
1718451,TO,Tocantins,Pugmil,,-48.8942204488,-10.4243071562,Pugmil,,Rio Formoso,Ocidental do Tocantins
1718501,TO,Tocantins,Recursolândia,,-47.238041195,-8.7353604539,Recursolandia,,Jalapão,Oriental do Tocantins
1718550,TO,Tocantins,Riachinho,,-48.141045502,-6.4422113877,Riachinho,,Bico do Papagaio,Ocidental do Tocantins
1718659,TO,Tocantins,Rio da Conceição,,-46.8803997046,-11.4049400239,Rio da Conceicao,,Dianópolis,Oriental do Tocantins
1718709,TO,Tocantins,Rio dos Bois,,-48.5330479716,-9.3437422387,Rio dos Bois,,Miracema do Tocantins,Ocidental do Tocantins
1718758,TO,Tocantins,Rio Sono,,-47.8999416391,-9.3477893341,Rio Sono,,Jalapão,Oriental do Tocantins
1718808,TO,Tocantins,Sampaio,,-47.8757924572,-5.3492956165,Sampaio,,Bico do Papagaio,Ocidental do Tocantins
1718840,TO,Tocantins,Sandolândia,,-49.9333881543,-12.5416001675,Sandolandia,,Rio Formoso,Ocidental do Tocantins
1718865,TO,Tocantins,Santa Fé do Araguaia,,-48.6939418034,-7.149936385,Santa Fe do Araguaia,,Araguaína,Ocidental do Tocantins
1718881,TO,Tocantins,Santa Maria do Tocantins,,-47.7452704192,-8.7749764493,Santa Maria do Tocantins,,Porto Nacional,Oriental do Tocantins
1718899,TO,Tocantins,Santa Rita do Tocantins,,-48.9092940074,-10.8664553694,Santa Rita do Tocantins,,Gurupi,Ocidental do Tocantins
1718907,TO,Tocantins,Santa Rosa do Tocantins,,-48.1199542218,-11.4514039985,Santa Rosa do Tocantins,,Dianópolis,Oriental do Tocantins
1719004,TO,Tocantins,Santa Tereza do Tocantins,,-47.8062883215,-10.2823615278,Santa Tereza do Tocantins,,Jalapão,Oriental do Tocantins
1720002,TO,Tocantins,Santa Terezinha do Tocantins,,-47.684285363,-6.4369976184,Santa Terezinha do Tocantins,,Bico do Papagaio,Ocidental do Tocantins
1720101,TO,Tocantins,São Bento do Tocantins,,-47.9193922871,-6.0449992572,Sao Bento do Tocantins,,Bico do Papagaio,Ocidental do Tocantins
1720150,TO,Tocantins,São Félix do Tocantins,,-46.654980831,-10.173285854,Sao Felix do Tocantins,,Jalapão,Oriental do Tocantins
1720200,TO,Tocantins,São Miguel do Tocantins,,-47.5730023394,-5.5538195288,Sao Miguel do Tocantins,,Bico do Papagaio,Ocidental do Tocantins
1720259,TO,Tocantins,São Salvador do Tocantins,,-48.2320849917,-12.7474334145,Sao Salvador do Tocantins,,Gurupi,Ocidental do Tocantins
1720309,TO,Tocantins,São Sebastião do Tocantins,,-48.203834149,-5.2589614537,Sao Sebastiao do Tocantins,,Bico do Papagaio,Ocidental do Tocantins
1720499,TO,Tocantins,São Valério,,-48.2329484334,-11.9730674595,Sao Valerio,,Dianópolis,Oriental do Tocantins
1720655,TO,Tocantins,Silvanópolis,,-48.1798241355,-11.1498613086,Silvanopolis,,Porto Nacional,Oriental do Tocantins
1720804,TO,Tocantins,Sítio Novo do Tocantins,,-47.6374226505,-5.6047268567,Sitio Novo do Tocantins,,Bico do Papagaio,Ocidental do Tocantins
1720853,TO,Tocantins,Sucupira,,-48.9111262827,-11.9862215109,Sucupira,,Gurupi,Ocidental do Tocantins
1720903,TO,Tocantins,Taguatinga,,-46.4387317009,-12.3961417387,Taguatinga,,Dianópolis,Oriental do Tocantins
1720937,TO,Tocantins,Taipas do Tocantins,,-46.9845717959,-12.1928372091,Taipas do Tocantins,,Dianópolis,Oriental do Tocantins
1720978,TO,Tocantins,Talismã,,-49.0911184339,-12.7875384069,Talisma,,Gurupi,Ocidental do Tocantins
1721000,TO,Tocantins,Palmas,true,-48.3510437082,-10.1632533268,Palmas,,Porto Nacional,Oriental do Tocantins
1721109,TO,Tocantins,Tocantínia,,-48.3758796714,-9.558147734,Tocantinia,,Porto Nacional,Oriental do Tocantins
1721208,TO,Tocantins,Tocantinópolis,,-47.4274129287,-6.325634376,Tocantinopolis,,Bico do Papagaio,Ocidental do Tocantins
1721257,TO,Tocantins,Tupirama,,-48.2066848031,-8.9805695494,Tupirama,,Miracema do Tocantins,Ocidental do Tocantins
1721307,TO,Tocantins,Tupiratins,,-48.1229957409,-8.395529997,Tupiratins,,Miracema do Tocantins,Ocidental do Tocantins
1722081,TO,Tocantins,Wanderlândia,,-47.95626773,-6.850125517,Wanderlandia,,Araguaína,Ocidental do Tocantins
1722107,TO,Tocantins,Xambioá,,-48.53160107,-6.41188502,Xambioa,,Araguaína,Ocidental do Tocantins
2100055,MA,Maranhão,Açailândia,,-47.5066645931,-4.9513770002,Acailandia,,Imperatriz,Oeste Maranhense
2100105,MA,Maranhão,Afonso Cunha,,-43.320869004,-4.1350154769,Afonso Cunha,,Coelho Neto,Leste Maranhense
2100154,MA,Maranhão,Água Doce do Maranhão,,-42.1155512017,-2.8402782791,Agua Doce do Maranhao,,Baixo Parnaíba Maranhense,Leste Maranhense
2100204,MA,Maranhão,Alcântara,,-44.4170125373,-2.4032765251,Alcantara,,Litoral Ocidental Maranhense,Norte Maranhense
2100303,MA,Maranhão,Aldeias Altas,,-43.4687348529,-4.6307794952,Aldeias Altas,,Coelho Neto,Leste Maranhense
2100402,MA,Maranhão,Altamira do Maranhão,,-45.4646758312,-4.1622692669,Altamira do Maranhao,,Pindaré,Oeste Maranhense
2100436,MA,Maranhão,Alto Alegre do Maranhão,,-44.4482474945,-4.207227,Alto Alegre do Maranhao,,Codó,Leste Maranhense
2100477,MA,Maranhão,Alto Alegre do Pindaré,,-45.8420796162,-3.6651703745,Alto Alegre do Pindare,,Pindaré,Oeste Maranhense
2100501,MA,Maranhão,Alto Parnaíba,,-45.9273440133,-9.1083659322,Alto Parnaiba,,Gerais de Balsas,Sul Maranhense
2100550,MA,Maranhão,Amapá do Maranhão,,-46.0091799004,-1.6809214951,Amapa do Maranhao,,Gurupi,Oeste Maranhense
2100600,MA,Maranhão,Amarante do Maranhão,,-46.7506375455,-5.5576620002,Amarante do Maranhao,,Imperatriz,Oeste Maranhense
2100709,MA,Maranhão,Anajatuba,,-44.6206700278,-3.2575548421,Anajatuba,,Baixada Maranhense,Norte Maranhense
2100808,MA,Maranhão,Anapurus,,-43.1057925097,-3.6670346623,Anapurus,,Chapadinha,Leste Maranhense
2100832,MA,Maranhão,Apicum-Açu,,-45.0766520734,-1.5305915778,Apicum-Acu,,Litoral Ocidental Maranhense,Norte Maranhense
2100873,MA,Maranhão,Araguanã,,-45.6687944761,-2.9491256233,Araguana,,Pindaré,Oeste Maranhense
2100907,MA,Maranhão,Araioses,,-41.8991394499,-2.8892558464,Araioses,,Baixo Parnaíba Maranhense,Leste Maranhense
2100956,MA,Maranhão,Arame,,-46.0136362778,-4.886081505,Arame,,Alto Mearim e Grajaú,Centro Maranhense
2101004,MA,Maranhão,Arari,,-44.7788346547,-3.4591709701,Arari,,Baixada Maranhense,Norte Maranhense
2101103,MA,Maranhão,Axixá,,-44.0545858091,-2.8377968371,Axixa,,Rosário,Norte Maranhense
2101202,MA,Maranhão,Bacabal,,-44.7815559641,-4.2315246298,Bacabal,,Médio Mearim,Centro Maranhense
2101251,MA,Maranhão,Bacabeira,,-44.3154229866,-2.9858247788,Bacabeira,,Rosário,Norte Maranhense
2101301,MA,Maranhão,Bacuri,,-45.1373489396,-1.7240463185,Bacuri,,Litoral Ocidental Maranhense,Norte Maranhense
2101350,MA,Maranhão,Bacurituba,,-44.7357420062,-2.7108719765,Bacurituba,,Litoral Ocidental Maranhense,Norte Maranhense
2101400,MA,Maranhão,Balsas,,-46.0389926733,-7.5311699902,Balsas,,Gerais de Balsas,Sul Maranhense
2101509,MA,Maranhão,Barão de Grajaú,,-43.0264526994,-6.7589552056,Barao de Grajau,,Chapadas do Alto Itapecuru,Leste Maranhense
2101608,MA,Maranhão,Barra do Corda,,-45.2390110161,-5.5083395,Barra do Corda,,Alto Mearim e Grajaú,Centro Maranhense
2101707,MA,Maranhão,Barreirinhas,,-42.8278025132,-2.7500859488,Barreirinhas,,Lençóis Maranhenses,Norte Maranhense
2101731,MA,Maranhão,Belágua,,-43.5100616427,-3.1567722275,Belagua,,Chapadinha,Leste Maranhense
2101772,MA,Maranhão,Bela Vista do Maranhão,,-45.2482458782,-3.7377332499,Bela Vista do Maranhao,,Baixada Maranhense,Norte Maranhense
2101806,MA,Maranhão,Benedito Leite,,-44.559856799,-7.2187997954,Benedito Leite,,Chapadas Das Mangabeiras,Sul Maranhense
2101905,MA,Maranhão,Bequimão,,-44.7857301569,-2.4620629951,Bequimao,,Litoral Ocidental Maranhense,Norte Maranhense
2101939,MA,Maranhão,Bernardo do Mearim,,-44.7643231035,-4.6302874908,Bernardo do Mearim,,Médio Mearim,Centro Maranhense
2101970,MA,Maranhão,Boa Vista do Gurupi,,-46.2987100525,-1.7932961358,Boa Vista do Gurupi,,Gurupi,Oeste Maranhense
2102002,MA,Maranhão,Bom Jardim,,-45.6018893891,-3.5441609779,Bom Jardim,,Pindaré,Oeste Maranhense
2102036,MA,Maranhão,Bom Jesus das Selvas,,-46.8532412231,-4.4899683531,Bom Jesus das Selvas,,Pindaré,Oeste Maranhense
2102077,MA,Maranhão,Bom Lugar,,-45.0311078563,-4.3755096015,Bom Lugar,,Médio Mearim,Centro Maranhense
2102101,MA,Maranhão,Brejo,,-42.7508478268,-3.679178,Brejo,,Chapadinha,Leste Maranhense
2102150,MA,Maranhão,Brejo de Areia,,-45.5820952718,-4.3306298975,Brejo de Areia,,Pindaré,Oeste Maranhense
2102200,MA,Maranhão,Buriti,,-42.9251061778,-3.9455715,Buriti,,Chapadinha,Leste Maranhense
2102309,MA,Maranhão,Buriti Bravo,,-43.8356215415,-5.8352881321,Buriti Bravo,,Caxias,Leste Maranhense
2102325,MA,Maranhão,Buriticupu,,-46.4514953191,-4.3259477263,Buriticupu,,Pindaré,Oeste Maranhense
2102358,MA,Maranhão,Buritirana,,-47.0172250932,-5.5889151417,Buritirana,,Imperatriz,Oeste Maranhense
2102374,MA,Maranhão,Cachoeira Grande,,-44.0596850158,-2.9319210391,Cachoeira Grande,,Rosário,Norte Maranhense
2102408,MA,Maranhão,Cajapió,,-44.6733771646,-2.8828822032,Cajapio,,Litoral Ocidental Maranhense,Norte Maranhense
2102507,MA,Maranhão,Cajari,,-45.007965335,-3.3238688309,Cajari,,Baixada Maranhense,Norte Maranhense
2102556,MA,Maranhão,Campestre do Maranhão,,-47.3676328633,-6.1647166458,Campestre do Maranhao,,Porto Franco,Sul Maranhense
2102606,MA,Maranhão,Cândido Mendes,,-45.7372683656,-1.4538891085,Candido Mendes,,Gurupi,Oeste Maranhense
2102705,MA,Maranhão,Cantanhede,,-44.3818161358,-3.6283643119,Cantanhede,,Itapecuru Mirim,Norte Maranhense
2102754,MA,Maranhão,Capinzal do Norte,,-44.330436252,-4.7212453888,Capinzal do Norte,,Codó,Leste Maranhense
2102804,MA,Maranhão,Carolina,,-47.4700918028,-7.3307830052,Carolina,,Porto Franco,Sul Maranhense
2102903,MA,Maranhão,Carutapera,,-46.0231508346,-1.200602,Carutapera,,Gurupi,Oeste Maranhense
2103000,MA,Maranhão,Caxias,,-43.3585394285,-4.8616749902,Caxias,,Caxias,Leste Maranhense
2103109,MA,Maranhão,Cedral,,-44.5307895278,-1.9979159256,Cedral,,Litoral Ocidental Maranhense,Norte Maranhense
2103125,MA,Maranhão,Central do Maranhão,,-44.8318437025,-2.1913139076,Central do Maranhao,,Litoral Ocidental Maranhense,Norte Maranhense
2103158,MA,Maranhão,Centro do Guilherme,,-46.0399601132,-2.4569850818,Centro do Guilherme,,Gurupi,Oeste Maranhense
2103174,MA,Maranhão,Centro Novo do Maranhão,,-46.128408955,-2.1442916986,Centro Novo do Maranhao,,Gurupi,Oeste Maranhense
2103208,MA,Maranhão,Chapadinha,,-43.3611207818,-3.74002452,Chapadinha,,Chapadinha,Leste Maranhense
2103257,MA,Maranhão,Cidelândia,,-47.7842327757,-5.1774210472,Cidelandia,,Imperatriz,Oeste Maranhense
2103307,MA,Maranhão,Codó,,-43.886080235,-4.4513375001,Codo,,Codó,Leste Maranhense
2103406,MA,Maranhão,Coelho Neto,,-43.0140136155,-4.2547375001,Coelho Neto,,Coelho Neto,Leste Maranhense
2103505,MA,Maranhão,Colinas,,-44.2497802305,-6.0273655202,Colinas,,Chapadas do Alto Itapecuru,Leste Maranhense
2103554,MA,Maranhão,Conceição do Lago-Açu,,-44.9030159052,-3.8411184579,Conceicao do Lago-Acu,,Baixada Maranhense,Norte Maranhense
2103604,MA,Maranhão,Coroatá,,-44.1255992015,-4.128976,Coroata,,Codó,Leste Maranhense
2103703,MA,Maranhão,Cururupu,,-44.867761617,-1.8255207812,Cururupu,,Litoral Ocidental Maranhense,Norte Maranhense
2103752,MA,Maranhão,Davinópolis,,-47.4049963875,-5.5344562161,Davinopolis,,Imperatriz,Oeste Maranhense
2103802,MA,Maranhão,Dom Pedro,,-44.440009911,-5.0384476352,Dom Pedro,,Presidente Dutra,Centro Maranhense
2103901,MA,Maranhão,Duque Bacelar,,-42.9441802036,-4.1478190971,Duque Bacelar,,Coelho Neto,Leste Maranhense
2104008,MA,Maranhão,Esperantinópolis,,-44.886068699,-4.8703008975,Esperantinopolis,,Médio Mearim,Centro Maranhense
2104057,MA,Maranhão,Estreito,,-47.4478829861,-6.5680849802,Estreito,,Porto Franco,Sul Maranhense
2104073,MA,Maranhão,Feira Nova do Maranhão,,-46.687355216,-6.9631355406,Feira Nova do Maranhao,,Gerais de Balsas,Sul Maranhense
2104081,MA,Maranhão,Fernando Falcão,,-44.9107074022,-6.1549784629,Fernando Falcao,,Alto Mearim e Grajaú,Centro Maranhense
2104099,MA,Maranhão,Formosa da Serra Negra,,-46.1863570069,-6.4353041056,Formosa da Serra Negra,,Alto Mearim e Grajaú,Centro Maranhense
2104107,MA,Maranhão,Fortaleza dos Nogueiras,,-46.185557542,-6.9659260875,Fortaleza dos Nogueiras,,Chapadas Das Mangabeiras,Sul Maranhense
2104206,MA,Maranhão,Fortuna,,-44.1606284272,-5.7362241325,Fortuna,,Presidente Dutra,Centro Maranhense
2104305,MA,Maranhão,Godofredo Viana,,-45.7717548081,-1.4098001867,Godofredo Viana,,Gurupi,Oeste Maranhense
2104404,MA,Maranhão,Gonçalves Dias,,-44.3059065359,-5.1439555695,Goncalves Dias,,Presidente Dutra,Centro Maranhense
2104503,MA,Maranhão,Governador Archer,,-44.2757565261,-5.0253878239,Governador Archer,,Presidente Dutra,Centro Maranhense
2104552,MA,Maranhão,Governador Edison Lobão,,-47.368935839,-5.7474117385,Governador Edison Lobao,,Imperatriz,Oeste Maranhense
2104602,MA,Maranhão,Governador Eugênio Barros,,-44.246962646,-5.3224910015,Governador Eugenio Barros,,Presidente Dutra,Centro Maranhense
2104628,MA,Maranhão,Governador Luiz Rocha,,-44.0708873355,-5.4728646849,Governador Luiz Rocha,,Presidente Dutra,Centro Maranhense
2104651,MA,Maranhão,Governador Newton Bello,,-45.674501797,-3.4297047199,Governador Newton Bello,,Pindaré,Oeste Maranhense
2104677,MA,Maranhão,Governador Nunes Freire,,-45.8814811328,-2.13496236,Governador Nunes Freire,,Gurupi,Oeste Maranhense
2104701,MA,Maranhão,Graça Aranha,,-44.3357912599,-5.4048212131,Graca Aranha,,Presidente Dutra,Centro Maranhense
2104800,MA,Maranhão,Grajaú,,-46.142395636,-5.8185484313,Grajau,,Alto Mearim e Grajaú,Centro Maranhense
2104909,MA,Maranhão,Guimarães,,-44.5977464563,-2.1350771584,Guimaraes,,Litoral Ocidental Maranhense,Norte Maranhense
2105005,MA,Maranhão,Humberto de Campos,,-43.4650921443,-2.5912239723,Humberto de Campos,,Lençóis Maranhenses,Norte Maranhense
2105104,MA,Maranhão,Icatu,,-44.0658484686,-2.7748278631,Icatu,,Rosário,Norte Maranhense
2105153,MA,Maranhão,Igarapé do Meio,,-45.1833277022,-3.6367085219,Igarape do Meio,,Baixada Maranhense,Norte Maranhense
2105203,MA,Maranhão,Igarapé Grande,,-44.8674033459,-4.6608538062,Igarape Grande,,Médio Mearim,Centro Maranhense
2105302,MA,Maranhão,Imperatriz,,-47.4798108058,-5.5265240252,Imperatriz,,Imperatriz,Oeste Maranhense
2105351,MA,Maranhão,Itaipava do Grajaú,,-45.7926825035,-5.1445822618,Itaipava do Grajau,,Alto Mearim e Grajaú,Centro Maranhense
2105401,MA,Maranhão,Itapecuru Mirim,,-44.3542633904,-3.3990454801,Itapecuru Mirim,,Itapecuru Mirim,Norte Maranhense
2105427,MA,Maranhão,Itinga do Maranhão,,-47.5279099638,-4.4550039984,Itinga do Maranhao,,Imperatriz,Oeste Maranhense
2105450,MA,Maranhão,Jatobá,,-44.2199147698,-5.8196669368,Jatoba,,Chapadas do Alto Itapecuru,Leste Maranhense
2105476,MA,Maranhão,Jenipapo dos Vieiras,,-45.6333791074,-5.3694249264,Jenipapo dos Vieiras,,Alto Mearim e Grajaú,Centro Maranhense
2105500,MA,Maranhão,João Lisboa,,-47.4050361498,-5.4536629416,Joao Lisboa,,Imperatriz,Oeste Maranhense
2105609,MA,Maranhão,Joselândia,,-44.6991525645,-4.9726933289,Joselandia,,Alto Mearim e Grajaú,Centro Maranhense
2105658,MA,Maranhão,Junco do Maranhão,,-46.0707260732,-1.8746095975,Junco do Maranhao,,Gurupi,Oeste Maranhense
2105708,MA,Maranhão,Lago da Pedra,,-45.1258913559,-4.564744515,Lago da Pedra,,Pindaré,Oeste Maranhense
2105807,MA,Maranhão,Lago do Junco,,-45.0513443921,-4.6076432177,Lago do Junco,,Médio Mearim,Centro Maranhense
2105906,MA,Maranhão,Lago Verde,,-44.937635232,-4.0387112953,Lago Verde,,Médio Mearim,Centro Maranhense
2105922,MA,Maranhão,Lagoa do Mato,,-43.5275591166,-6.0452772966,Lagoa do Mato,,Chapadas do Alto Itapecuru,Leste Maranhense
2105948,MA,Maranhão,Lago dos Rodrigues,,-44.9764423256,-4.6123757769,Lago dos Rodrigues,,Médio Mearim,Centro Maranhense
2105963,MA,Maranhão,Lagoa Grande do Maranhão,,-45.3906142794,-4.9931237371,Lagoa Grande do Maranhao,,Pindaré,Oeste Maranhense
2105989,MA,Maranhão,Lajeado Novo,,-47.0324475171,-6.1916092267,Lajeado Novo,,Imperatriz,Oeste Maranhense
2106003,MA,Maranhão,Lima Campos,,-44.4693403292,-4.5170459872,Lima Campos,,Médio Mearim,Centro Maranhense
2106102,MA,Maranhão,Loreto,,-45.1392416375,-7.0944541654,Loreto,,Chapadas Das Mangabeiras,Sul Maranhense
2106201,MA,Maranhão,Luís Domingues,,-45.8953319921,-1.3254602444,Luis Domingues,,Gurupi,Oeste Maranhense
2106300,MA,Maranhão,Magalhães de Almeida,,-42.2015066914,-3.3966676742,Magalhaes de Almeida,,Baixo Parnaíba Maranhense,Leste Maranhense
2106326,MA,Maranhão,Maracaçumé,,-45.9586390372,-2.0561645495,Maracacume,,Gurupi,Oeste Maranhense
2106359,MA,Maranhão,Marajá do Sena,,-45.4572376526,-4.6203133241,Maraja do Sena,,Pindaré,Oeste Maranhense
2106375,MA,Maranhão,Maranhãozinho,,-45.8556114549,-2.2356169921,Maranhaozinho,,Gurupi,Oeste Maranhense
2106409,MA,Maranhão,Mata Roma,,-43.1203894236,-3.6190455099,Mata Roma,,Chapadinha,Leste Maranhense
2106508,MA,Maranhão,Matinha,,-45.0364289401,-3.09840003,Matinha,,Baixada Maranhense,Norte Maranhense
2106607,MA,Maranhão,Matões,,-43.2012082829,-5.5224650194,Matoes,,Caxias,Leste Maranhense
2106631,MA,Maranhão,Matões do Norte,,-44.5502445069,-3.6275187802,Matoes do Norte,,Itapecuru Mirim,Norte Maranhense
2106672,MA,Maranhão,Milagres do Maranhão,,-42.6107528325,-3.5822066414,Milagres do Maranhao,,Chapadinha,Leste Maranhense
2106706,MA,Maranhão,Mirador,,-44.3626097939,-6.3775656954,Mirador,,Chapadas do Alto Itapecuru,Leste Maranhense
2106755,MA,Maranhão,Miranda do Norte,,-44.5842756917,-3.5626447744,Miranda do Norte,,Itapecuru Mirim,Norte Maranhense
2106805,MA,Maranhão,Mirinzal,,-44.7857559865,-2.0642241916,Mirinzal,,Litoral Ocidental Maranhense,Norte Maranhense
2106904,MA,Maranhão,Monção,,-45.2475846706,-3.49393248,Moncao,,Baixada Maranhense,Norte Maranhense
2107001,MA,Maranhão,Montes Altos,,-47.070439508,-5.8285625042,Montes Altos,,Imperatriz,Oeste Maranhense
2107100,MA,Maranhão,Morros,,-44.0445445432,-2.8614789531,Morros,,Rosário,Norte Maranhense
2107209,MA,Maranhão,Nina Rodrigues,,-43.9044847603,-3.4624642894,Nina Rodrigues,,Itapecuru Mirim,Norte Maranhense
2107258,MA,Maranhão,Nova Colinas,,-46.2593252229,-7.1205660036,Nova Colinas,,Chapadas Das Mangabeiras,Sul Maranhense
2107308,MA,Maranhão,Nova Iorque,,-44.0486267271,-6.7332033058,Nova Iorque,,Chapadas do Alto Itapecuru,Leste Maranhense
2107357,MA,Maranhão,Nova Olinda do Maranhão,,-45.7045360408,-2.7998865441,Nova Olinda do Maranhao,,Pindaré,Oeste Maranhense
2107407,MA,Maranhão,Olho d'Água das Cunhãs,,-45.1195796205,-4.1372759298,Olho d'Agua das Cunhas,,Médio Mearim,Centro Maranhense
2107456,MA,Maranhão,Olinda Nova do Maranhão,,-45.0032353745,-2.9974776154,Olinda Nova do Maranhao,,Baixada Maranhense,Norte Maranhense
2107506,MA,Maranhão,Paço do Lumiar,,-44.0986923548,-2.528063,Paco do Lumiar,,Aglomeração Urbana de São Luís,Norte Maranhense
2107605,MA,Maranhão,Palmeirândia,,-44.9044638923,-2.6477742783,Palmeirandia,,Baixada Maranhense,Norte Maranhense
2107704,MA,Maranhão,Paraibano,,-43.9857620488,-6.4318254141,Paraibano,,Chapadas do Alto Itapecuru,Leste Maranhense
2107803,MA,Maranhão,Parnarama,,-43.0904013535,-5.6844671764,Parnarama,,Caxias,Leste Maranhense
2107902,MA,Maranhão,Passagem Franca,,-43.7817452259,-6.1739944256,Passagem Franca,,Chapadas do Alto Itapecuru,Leste Maranhense
2108009,MA,Maranhão,Pastos Bons,,-44.0886025134,-6.6040277321,Pastos Bons,,Chapadas do Alto Itapecuru,Leste Maranhense
2108058,MA,Maranhão,Paulino Neves,,-42.5454239809,-2.7182059898,Paulino Neves,,Lençóis Maranhenses,Norte Maranhense
2108108,MA,Maranhão,Paulo Ramos,,-45.2399800047,-4.4479567659,Paulo Ramos,,Pindaré,Oeste Maranhense
2108207,MA,Maranhão,Pedreiras,,-44.6037348763,-4.5693506881,Pedreiras,,Médio Mearim,Centro Maranhense
2108256,MA,Maranhão,Pedro do Rosário,,-45.3464537341,-2.9681146727,Pedro do Rosario,,Baixada Maranhense,Norte Maranhense
2108306,MA,Maranhão,Penalva,,-45.1764616888,-3.2932333178,Penalva,,Baixada Maranhense,Norte Maranhense
2108405,MA,Maranhão,Peri Mirim,,-44.8502907001,-2.5730546485,Peri Mirim,,Baixada Maranhense,Norte Maranhense
2108454,MA,Maranhão,Peritoró,,-44.3258535239,-4.3702251177,Peritoro,,Codó,Leste Maranhense
2108504,MA,Maranhão,Pindaré-Mirim,,-45.3468679178,-3.6055005749,Pindare-Mirim,,Pindaré,Oeste Maranhense
2108603,MA,Maranhão,Pinheiro,,-45.0839266013,-2.5227405,Pinheiro,,Baixada Maranhense,Norte Maranhense
2108702,MA,Maranhão,Pio XII,,-45.1699603887,-3.8875875301,Pio XII,,Médio Mearim,Centro Maranhense
2108801,MA,Maranhão,Pirapemas,,-44.2282808838,-3.7253290661,Pirapemas,,Itapecuru Mirim,Norte Maranhense
2108900,MA,Maranhão,Poção de Pedras,,-44.9515514003,-4.7500252112,Pocao de Pedras,,Médio Mearim,Centro Maranhense
2109007,MA,Maranhão,Porto Franco,,-47.3821649019,-6.3541818639,Porto Franco,,Porto Franco,Sul Maranhense
2109056,MA,Maranhão,Porto Rico do Maranhão,,-44.5837478896,-1.8572232148,Porto Rico do Maranhao,,Litoral Ocidental Maranhense,Norte Maranhense
2109106,MA,Maranhão,Presidente Dutra,,-44.4929188624,-5.2823742578,Presidente Dutra,,Presidente Dutra,Centro Maranhense
2109205,MA,Maranhão,Presidente Juscelino,,-44.0767794214,-2.9282292461,Presidente Juscelino,,Rosário,Norte Maranhense
2109239,MA,Maranhão,Presidente Médici,,-45.8207086476,-2.3836640465,Presidente Medici,,Pindaré,Oeste Maranhense
2109270,MA,Maranhão,Presidente Sarney,,-45.3713022606,-2.5955305599,Presidente Sarney,,Baixada Maranhense,Norte Maranhense
2109304,MA,Maranhão,Presidente Vargas,,-44.0334018673,-3.4020115222,Presidente Vargas,,Itapecuru Mirim,Norte Maranhense
2109403,MA,Maranhão,Primeira Cruz,,-43.4424433047,-2.510583172,Primeira Cruz,,Lençóis Maranhenses,Norte Maranhense
2109452,MA,Maranhão,Raposa,,-44.1025161642,-2.4150749026,Raposa,,Aglomeração Urbana de São Luís,Norte Maranhense
2109502,MA,Maranhão,Riachão,,-46.6233501429,-7.3645650002,Riachao,,Gerais de Balsas,Sul Maranhense
2109551,MA,Maranhão,Ribamar Fiquene,,-47.3834777871,-5.9338228588,Ribamar Fiquene,,Imperatriz,Oeste Maranhense
2109601,MA,Maranhão,Rosário,,-44.2475185953,-2.941543035,Rosario,,Rosário,Norte Maranhense
2109700,MA,Maranhão,Sambaíba,,-45.344203198,-7.1383508975,Sambaiba,,Chapadas Das Mangabeiras,Sul Maranhense
2109759,MA,Maranhão,Santa Filomena do Maranhão,,-44.5637140401,-5.4997668067,Santa Filomena do Maranhao,,Alto Mearim e Grajaú,Centro Maranhense
2109809,MA,Maranhão,Santa Helena,,-45.3051611932,-2.2345325089,Santa Helena,,Baixada Maranhense,Norte Maranhense
2109908,MA,Maranhão,Santa Inês,,-45.3782724523,-3.65857452,Santa Ines,,Pindaré,Oeste Maranhense
2110005,MA,Maranhão,Santa Luzia,,-45.6650117249,-3.968391465,Santa Luzia,,Pindaré,Oeste Maranhense
2110039,MA,Maranhão,Santa Luzia do Paruá,,-45.7764615616,-2.5461614748,Santa Luzia do Parua,,Pindaré,Oeste Maranhense
2110104,MA,Maranhão,Santa Quitéria do Maranhão,,-42.5628730097,-3.4984849951,Santa Quiteria do Maranhao,,Baixo Parnaíba Maranhense,Leste Maranhense
2110203,MA,Maranhão,Santa Rita,,-44.3199480819,-3.1341167657,Santa Rita,,Rosário,Norte Maranhense
2110237,MA,Maranhão,Santana do Maranhão,,-42.4007677572,-3.1130683428,Santana do Maranhao,,Baixo Parnaíba Maranhense,Leste Maranhense
2110278,MA,Maranhão,Santo Amaro do Maranhão,,-43.2552849422,-2.502721199,Santo Amaro do Maranhao,,Lençóis Maranhenses,Norte Maranhense
2110302,MA,Maranhão,Santo Antônio dos Lopes,,-44.3614474338,-4.8738195756,Santo Antonio dos Lopes,,Médio Mearim,Centro Maranhense
2110401,MA,Maranhão,São Benedito do Rio Preto,,-43.5299918702,-3.3327660037,Sao Benedito do Rio Preto,,Chapadinha,Leste Maranhense
2110500,MA,Maranhão,São Bento,,-44.8283451799,-2.6970075,Sao Bento,,Baixada Maranhense,Norte Maranhense
2110609,MA,Maranhão,São Bernardo,,-42.4230096609,-3.3654365101,Sao Bernardo,,Baixo Parnaíba Maranhense,Leste Maranhense
2110658,MA,Maranhão,São Domingos do Azeitão,,-44.6504239103,-6.8044250098,Sao Domingos do Azeitao,,Chapadas Das Mangabeiras,Sul Maranhense
2110708,MA,Maranhão,São Domingos do Maranhão,,-44.3928792569,-5.5656420002,Sao Domingos do Maranhao,,Presidente Dutra,Centro Maranhense
2110807,MA,Maranhão,São Félix de Balsas,,-44.8114476615,-7.0846851542,Sao Felix de Balsas,,Chapadas Das Mangabeiras,Sul Maranhense
2110856,MA,Maranhão,São Francisco do Brejão,,-47.3911373986,-5.1302007872,Sao Francisco do Brejao,,Imperatriz,Oeste Maranhense
2110906,MA,Maranhão,São Francisco do Maranhão,,-42.8653217276,-6.2527979167,Sao Francisco do Maranhao,,Chapadas do Alto Itapecuru,Leste Maranhense
2111003,MA,Maranhão,São João Batista,,-44.8117618531,-2.9533329125,Sao Joao Batista,,Baixada Maranhense,Norte Maranhense
2111029,MA,Maranhão,São João do Carú,,-46.2549254827,-3.5608034069,Sao Joao do Caru,,Pindaré,Oeste Maranhense
2111052,MA,Maranhão,São João do Paraíso,,-47.0506104205,-6.4662222864,Sao Joao do Paraiso,,Porto Franco,Sul Maranhense
2111078,MA,Maranhão,São João do Soter,,-43.8181817951,-5.1157392644,Sao Joao do Soter,,Caxias,Leste Maranhense
2111102,MA,Maranhão,São João dos Patos,,-43.7029101658,-6.4982081521,Sao Joao dos Patos,,Chapadas do Alto Itapecuru,Leste Maranhense
2111201,MA,Maranhão,São José de Ribamar,,-44.0575481151,-2.55585852,Sao Jose de Ribamar,,Aglomeração Urbana de São Luís,Norte Maranhense
2111250,MA,Maranhão,São José dos Basílios,,-44.5824465176,-5.0486872452,Sao Jose dos Basilios,,Presidente Dutra,Centro Maranhense
2111300,MA,Maranhão,São Luís,true,-44.2979185642,-2.5318859851,Sao Luis,,Aglomeração Urbana de São Luís,Norte Maranhense
2111409,MA,Maranhão,São Luís Gonzaga do Maranhão,,-44.6627084964,-4.3739184906,Sao Luis Gonzaga do Maranhao,,Médio Mearim,Centro Maranhense
2111508,MA,Maranhão,São Mateus do Maranhão,,-44.4685628111,-4.0345505101,Sao Mateus do Maranhao,,Médio Mearim,Centro Maranhense
2111532,MA,Maranhão,São Pedro da Água Branca,,-48.4236235936,-5.0889109974,Sao Pedro da Agua Branca,,Imperatriz,Oeste Maranhense
2111573,MA,Maranhão,São Pedro dos Crentes,,-46.5325803474,-6.8285556408,Sao Pedro dos Crentes,,Porto Franco,Sul Maranhense
2111607,MA,Maranhão,São Raimundo das Mangabeiras,,-45.4848314302,-7.0269626572,Sao Raimundo das Mangabeiras,,Chapadas Das Mangabeiras,Sul Maranhense
2111631,MA,Maranhão,São Raimundo do Doca Bezerra,,-45.0841627903,-5.1031818449,Sao Raimundo do Doca Bezerra,,Médio Mearim,Centro Maranhense
2111672,MA,Maranhão,São Roberto,,-44.9919011593,-5.0173668824,Sao Roberto,,Médio Mearim,Centro Maranhense
2111706,MA,Maranhão,São Vicente Ferrer,,-44.8869045766,-2.8907310644,Sao Vicente Ferrer,,Baixada Maranhense,Norte Maranhense
2111722,MA,Maranhão,Satubinha,,-45.2336295762,-4.0357354948,Satubinha,,Médio Mearim,Centro Maranhense
2111748,MA,Maranhão,Senador Alexandre Costa,,-44.0563015064,-5.2610765444,Senador Alexandre Costa,,Presidente Dutra,Centro Maranhense
2111763,MA,Maranhão,Senador La Rocque,,-47.289191424,-5.4418324952,Senador La Rocque,,Imperatriz,Oeste Maranhense
2111789,MA,Maranhão,Serrano do Maranhão,,-45.1146408497,-1.8526455417,Serrano do Maranhao,,Litoral Ocidental Maranhense,Norte Maranhense
2111805,MA,Maranhão,Sítio Novo,,-46.6949833407,-5.8706298913,Sitio Novo,,Alto Mearim e Grajaú,Centro Maranhense
2111904,MA,Maranhão,Sucupira do Norte,,-44.1886027052,-6.4782844476,Sucupira do Norte,,Chapadas do Alto Itapecuru,Leste Maranhense
2111953,MA,Maranhão,Sucupira do Riachão,,-43.5458533208,-6.4201084051,Sucupira do Riachao,,Chapadas do Alto Itapecuru,Leste Maranhense
2112001,MA,Maranhão,Tasso Fragoso,,-45.7441235175,-8.4798310179,Tasso Fragoso,,Gerais de Balsas,Sul Maranhense
2112100,MA,Maranhão,Timbiras,,-43.9384339738,-4.253840505,Timbiras,,Codó,Leste Maranhense
2112209,MA,Maranhão,Timon,,-42.8337278989,-5.1006811101,Timon,,Caxias,Leste Maranhense
2112233,MA,Maranhão,Trizidela do Vale,,-44.6106851966,-4.5701268566,Trizidela do Vale,,Médio Mearim,Centro Maranhense
2112274,MA,Maranhão,Tufilândia,,-45.6339164757,-3.6764041184,Tufilandia,,Pindaré,Oeste Maranhense
2112308,MA,Maranhão,Tuntum,,-44.6490121517,-5.24965554,Tuntum,,Alto Mearim e Grajaú,Centro Maranhense
2112407,MA,Maranhão,Turiaçu,,-45.3691524172,-1.6690220477,Turiacu,,Gurupi,Oeste Maranhense
2112456,MA,Maranhão,Turilândia,,-45.306765312,-2.228833525,Turilandia,,Gurupi,Oeste Maranhense
2112506,MA,Maranhão,Tutóia,,-42.2768472077,-2.7635501969,Tutoia,,Lençóis Maranhenses,Norte Maranhense
2112605,MA,Maranhão,Urbano Santos,,-43.4042484724,-3.2084094996,Urbano Santos,,Chapadinha,Leste Maranhense
2112704,MA,Maranhão,Vargem Grande,,-43.9166644902,-3.5418960001,Vargem Grande,,Itapecuru Mirim,Norte Maranhense
2112803,MA,Maranhão,Viana,,-45.0013066953,-3.2145625131,Viana,,Baixada Maranhense,Norte Maranhense
2112852,MA,Maranhão,Vila Nova dos Martírios,,-48.1389264826,-5.1835115192,Vila Nova dos Martirios,,Imperatriz,Oeste Maranhense
2112902,MA,Maranhão,Vitória do Mearim,,-44.8695722406,-3.4820473645,Vitoria do Mearim,,Baixada Maranhense,Norte Maranhense
2113009,MA,Maranhão,Vitorino Freire,,-45.2441851432,-4.2911865001,Vitorino Freire,,Pindaré,Oeste Maranhense
2114007,MA,Maranhão,Zé Doca,,-45.6576978606,-3.2754805,Ze Doca,,Pindaré,Oeste Maranhense
2200053,PI,Piauí,Acauã,,-41.0836378172,-8.2207866629,Acaua,,Alto Médio Canindé,Sudeste Piauiense
2200103,PI,Piauí,Agricolândia,,-42.6591831974,-5.7955019354,Agricolandia,,Médio Parnaíba Piauiense,Centro-Norte Piauiense
2200202,PI,Piauí,Água Branca,,-42.63513086,-5.8932663379,Agua Branca,,Médio Parnaíba Piauiense,Centro-Norte Piauiense
2200251,PI,Piauí,Alagoinha do Piauí,,-40.9346348169,-7.0081752801,Alagoinha do Piaui,,Pio Ix,Sudeste Piauiense
2200277,PI,Piauí,Alegrete do Piauí,,-40.8578629896,-7.2453494663,Alegrete do Piaui,,Pio Ix,Sudeste Piauiense
2200301,PI,Piauí,Alto Longá,,-42.2103219622,-5.2509930114,Alto Longa,,Campo Maior,Centro-Norte Piauiense
2200400,PI,Piauí,Altos,,-42.4609480356,-5.0365464343,Altos,,Teresina,Centro-Norte Piauiense
2200459,PI,Piauí,Alvorada do Gurguéia,,-43.8630715789,-8.4439590723,Alvorada do Gurgueia,,Alto Médio Gurguéia,Sudoeste Piauiense
2200509,PI,Piauí,Amarante,,-42.853692823,-6.2466107722,Amarante,,Médio Parnaíba Piauiense,Centro-Norte Piauiense
2200608,PI,Piauí,Angical do Piauí,,-42.7438657484,-6.0872416921,Angical do Piaui,,Médio Parnaíba Piauiense,Centro-Norte Piauiense
2200707,PI,Piauí,Anísio de Abreu,,-43.0348533321,-9.1749185309,Anisio de Abreu,,São Raimundo Nonato,Sudoeste Piauiense
2200806,PI,Piauí,Antônio Almeida,,-44.19653532,-7.219355834,Antonio Almeida,,Bertolínia,Sudoeste Piauiense
2200905,PI,Piauí,Aroazes,,-41.7974533388,-6.1128502563,Aroazes,,Valença do Piauí,Centro-Norte Piauiense
2200954,PI,Piauí,Aroeiras do Itaim,,-41.5632044183,-7.278745465,Aroeiras do Itaim,,Picos,Sudeste Piauiense
2201002,PI,Piauí,Arraial,,-42.5365666247,-6.6508270275,Arraial,,Médio Parnaíba Piauiense,Centro-Norte Piauiense
2201051,PI,Piauí,Assunção do Piauí,,-41.0508299965,-5.8649144945,Assuncao do Piaui,,Campo Maior,Centro-Norte Piauiense
2201101,PI,Piauí,Avelino Lopes,,-43.9415101418,-10.1347450128,Avelino Lopes,,Chapadas do Extremo Sul Piauiense,Sudoeste Piauiense
2201150,PI,Piauí,Baixa Grande do Ribeiro,,-45.2128152926,-7.8533519592,Baixa Grande do Ribeiro,,Alto Parnaíba Piauiense,Sudoeste Piauiense
2201176,PI,Piauí,Barra D'Alcântara,,-42.1050020826,-6.5188730723,Barra D'Alcantara,,Valença do Piauí,Centro-Norte Piauiense
2201200,PI,Piauí,Barras,,-42.2953398573,-4.2430933543,Barras,,Baixo Parnaíba Piauiense,Norte Piauiense
2201309,PI,Piauí,Barreiras do Piauí,,-45.4777877055,-9.9212468267,Barreiras do Piaui,,Alto Médio Gurguéia,Sudoeste Piauiense
2201408,PI,Piauí,Barro Duro,,-42.5133778221,-5.8123597078,Barro Duro,,Médio Parnaíba Piauiense,Centro-Norte Piauiense
2201507,PI,Piauí,Batalha,,-42.075218732,-4.0204123358,Batalha,,Baixo Parnaíba Piauiense,Norte Piauiense
2201556,PI,Piauí,Bela Vista do Piauí,,-41.871379644,-7.9721853196,Bela Vista do Piaui,,Alto Médio Canindé,Sudeste Piauiense
2201572,PI,Piauí,Belém do Piauí,,-40.9703021907,-7.3701396155,Belem do Piaui,,Alto Médio Canindé,Sudeste Piauiense
2201606,PI,Piauí,Beneditinos,,-42.3706167025,-5.4476028602,Beneditinos,,Teresina,Centro-Norte Piauiense
2201705,PI,Piauí,Bertolínia,,-43.9543877391,-7.6286247631,Bertolinia,,Bertolínia,Sudoeste Piauiense
2201739,PI,Piauí,Betânia do Piauí,,-40.7966219288,-8.1456655773,Betania do Piaui,,Alto Médio Canindé,Sudeste Piauiense
2201770,PI,Piauí,Boa Hora,,-42.1252957359,-4.4090096058,Boa Hora,,Baixo Parnaíba Piauiense,Norte Piauiense
2201804,PI,Piauí,Bocaina,,-41.3223406827,-6.9548423326,Bocaina,,Picos,Sudeste Piauiense
2201903,PI,Piauí,Bom Jesus,,-44.3605250848,-9.0709489837,Bom Jesus,,Alto Médio Gurguéia,Sudoeste Piauiense
2201919,PI,Piauí,Bom Princípio do Piauí,,-41.6452095701,-3.1898586876,Bom Principio do Piaui,,Litoral Piauiense,Norte Piauiense
2201929,PI,Piauí,Bonfim do Piauí,,-42.8796630651,-9.1665605393,Bonfim do Piaui,,São Raimundo Nonato,Sudoeste Piauiense
2201945,PI,Piauí,Boqueirão do Piauí,,-42.1036271347,-4.4858196316,Boqueirao do Piaui,,Campo Maior,Centro-Norte Piauiense
2201960,PI,Piauí,Brasileira,,-41.7892596436,-4.1378291077,Brasileira,,Baixo Parnaíba Piauiense,Norte Piauiense
2201988,PI,Piauí,Brejo do Piauí,,-42.8303018098,-8.2070647664,Brejo do Piaui,,São Raimundo Nonato,Sudoeste Piauiense
2202000,PI,Piauí,Buriti dos Lopes,,-41.8699088471,-3.1727213351,Buriti dos Lopes,,Litoral Piauiense,Norte Piauiense
2202026,PI,Piauí,Buriti dos Montes,,-41.1018513937,-5.3120667826,Buriti dos Montes,,Campo Maior,Centro-Norte Piauiense
2202059,PI,Piauí,Cabeceiras do Piauí,,-42.3083160653,-4.4713312938,Cabeceiras do Piaui,,Baixo Parnaíba Piauiense,Norte Piauiense
2202075,PI,Piauí,Cajazeiras do Piauí,,-42.3967272946,-6.7941841175,Cajazeiras do Piaui,,Picos,Sudeste Piauiense
2202083,PI,Piauí,Cajueiro da Praia,,-41.3471503622,-2.9292271718,Cajueiro da Praia,,Litoral Piauiense,Norte Piauiense
2202091,PI,Piauí,Caldeirão Grande do Piauí,,-40.6374189127,-7.3315596518,Caldeirao Grande do Piaui,,Alto Médio Canindé,Sudeste Piauiense
2202109,PI,Piauí,Campinas do Piauí,,-41.880745293,-7.654778128,Campinas do Piaui,,Alto Médio Canindé,Sudeste Piauiense
2202117,PI,Piauí,Campo Alegre do Fidalgo,,-41.8320133242,-8.3744803807,Campo Alegre do Fidalgo,,Alto Médio Canindé,Sudeste Piauiense
2202133,PI,Piauí,Campo Grande do Piauí,,-41.0312009604,-7.1359931202,Campo Grande do Piaui,,Alto Médio Canindé,Sudeste Piauiense
2202174,PI,Piauí,Campo Largo do Piauí,,-42.6260410417,-3.8078689392,Campo Largo do Piaui,,Baixo Parnaíba Piauiense,Norte Piauiense
2202208,PI,Piauí,Campo Maior,,-42.1667446047,-4.8291139266,Campo Maior,,Campo Maior,Centro-Norte Piauiense
2202251,PI,Piauí,Canavieira,,-43.7194280334,-7.6946215595,Canavieira,,Floriano,Sudoeste Piauiense
2202307,PI,Piauí,Canto do Buriti,,-42.944021022,-8.1082319197,Canto do Buriti,,São Raimundo Nonato,Sudoeste Piauiense
2202406,PI,Piauí,Capitão de Campos,,-41.9435219724,-4.4585592684,Capitao de Campos,,Campo Maior,Centro-Norte Piauiense
2202455,PI,Piauí,Capitão Gervásio Oliveira,,-41.8161163124,-8.4968378684,Capitao Gervasio Oliveira,,Alto Médio Canindé,Sudeste Piauiense
2202505,PI,Piauí,Caracol,,-43.3342004508,-9.2767652672,Caracol,,São Raimundo Nonato,Sudoeste Piauiense
2202539,PI,Piauí,Caraúbas do Piauí,,-41.841208126,-3.4785905375,Caraubas do Piaui,,Litoral Piauiense,Norte Piauiense
2202554,PI,Piauí,Caridade do Piauí,,-40.9903345468,-7.7286523876,Caridade do Piaui,,Alto Médio Canindé,Sudeste Piauiense
2202604,PI,Piauí,Castelo do Piauí,,-41.5473162427,-5.3215438709,Castelo do Piaui,,Campo Maior,Centro-Norte Piauiense
2202653,PI,Piauí,Caxingó,,-41.8826837611,-3.4269384028,Caxingo,,Litoral Piauiense,Norte Piauiense
2202703,PI,Piauí,Cocal,,-41.5568448346,-3.4704534897,Cocal,,Litoral Piauiense,Norte Piauiense
2202711,PI,Piauí,Cocal de Telha,,-41.979047874,-4.5538157239,Cocal de Telha,,Campo Maior,Centro-Norte Piauiense
2202729,PI,Piauí,Cocal dos Alves,,-41.4554189108,-3.6060725908,Cocal dos Alves,,Litoral Piauiense,Norte Piauiense
2202737,PI,Piauí,Coivaras,,-42.2073159063,-5.0913083514,Coivaras,,Teresina,Centro-Norte Piauiense
2202752,PI,Piauí,Colônia do Gurguéia,,-43.7960171561,-8.1875742163,Colonia do Gurgueia,,Bertolínia,Sudoeste Piauiense
2202778,PI,Piauí,Colônia do Piauí,,-42.1771185064,-7.223657564,Colonia do Piaui,,Picos,Sudeste Piauiense
2202802,PI,Piauí,Conceição do Canindé,,-41.5966339439,-7.8827041539,Conceicao do Caninde,,Alto Médio Canindé,Sudeste Piauiense
2202851,PI,Piauí,Coronel José Dias,,-42.4703571012,-8.8163694115,Coronel Jose Dias,,São Raimundo Nonato,Sudoeste Piauiense
2202901,PI,Piauí,Corrente,,-45.1633125236,-10.4409360381,Corrente,,Chapadas do Extremo Sul Piauiense,Sudoeste Piauiense
2203008,PI,Piauí,Cristalândia do Piauí,,-45.1860307001,-10.6478037518,Cristalandia do Piaui,,Chapadas do Extremo Sul Piauiense,Sudoeste Piauiense
2203107,PI,Piauí,Cristino Castro,,-44.2244147473,-8.8201862885,Cristino Castro,,Alto Médio Gurguéia,Sudoeste Piauiense
2203206,PI,Piauí,Curimatá,,-44.3007222329,-10.0312924303,Curimata,,Chapadas do Extremo Sul Piauiense,Sudoeste Piauiense
2203230,PI,Piauí,Currais,,-44.403002153,-9.0124338389,Currais,,Alto Médio Gurguéia,Sudoeste Piauiense
2203255,PI,Piauí,Curralinhos,,-42.8322105193,-5.6204532294,Curralinhos,,Teresina,Centro-Norte Piauiense
2203271,PI,Piauí,Curral Novo do Piauí,,-40.9010694707,-7.8307971884,Curral Novo do Piaui,,Alto Médio Canindé,Sudeste Piauiense
2203305,PI,Piauí,Demerval Lobão,,-42.6742286111,-5.3584654659,Demerval Lobao,,Teresina,Centro-Norte Piauiense
2203354,PI,Piauí,Dirceu Arcoverde,,-42.439569962,-9.3352000441,Dirceu Arcoverde,,São Raimundo Nonato,Sudoeste Piauiense
2203404,PI,Piauí,Dom Expedito Lopes,,-41.6523852113,-6.9579018427,Dom Expedito Lopes,,Picos,Sudeste Piauiense
2203420,PI,Piauí,Domingos Mourão,,-41.2718814489,-4.2534336345,Domingos Mourao,,Campo Maior,Centro-Norte Piauiense
2203453,PI,Piauí,Dom Inocêncio,,-41.9768511188,-9.0080749434,Dom Inocencio,,São Raimundo Nonato,Sudoeste Piauiense
2203503,PI,Piauí,Elesbão Veloso,,-42.1381444495,-6.2017194613,Elesbao Veloso,,Valença do Piauí,Centro-Norte Piauiense
2203602,PI,Piauí,Eliseu Martins,,-43.6648111317,-8.0964622896,Eliseu Martins,,Bertolínia,Sudoeste Piauiense
2203701,PI,Piauí,Esperantina,,-42.2353645251,-3.8956045306,Esperantina,,Baixo Parnaíba Piauiense,Norte Piauiense
2203750,PI,Piauí,Fartura do Piauí,,-42.7944014032,-9.4786062863,Fartura do Piaui,,São Raimundo Nonato,Sudoeste Piauiense
2203800,PI,Piauí,Flores do Piauí,,-42.924305802,-7.7917756018,Flores do Piaui,,Floriano,Sudoeste Piauiense
2203859,PI,Piauí,Floresta do Piauí,,-41.8003142914,-7.4667953749,Floresta do Piaui,,Alto Médio Canindé,Sudeste Piauiense
2203909,PI,Piauí,Floriano,,-43.0206447383,-6.7696724338,Floriano,,Floriano,Sudoeste Piauiense
2204006,PI,Piauí,Francinópolis,,-42.263366099,-6.3952926226,Francinopolis,,Valença do Piauí,Centro-Norte Piauiense
2204105,PI,Piauí,Francisco Ayres,,-42.6911278448,-6.6233435319,Francisco Ayres,,Médio Parnaíba Piauiense,Centro-Norte Piauiense
2204154,PI,Piauí,Francisco Macedo,,-40.7955673541,-7.3278710406,Francisco Macedo,,Alto Médio Canindé,Sudeste Piauiense
2204204,PI,Piauí,Francisco Santos,,-41.1361573365,-6.9941711375,Francisco Santos,,Pio Ix,Sudeste Piauiense
2204303,PI,Piauí,Fronteiras,,-40.6172329307,-7.0884125329,Fronteiras,,Alto Médio Canindé,Sudeste Piauiense
2204352,PI,Piauí,Geminiano,,-41.3575797605,-7.1584176259,Geminiano,,Picos,Sudeste Piauiense
2204402,PI,Piauí,Gilbués,,-45.3469199782,-9.8345699055,Gilbues,,Alto Médio Gurguéia,Sudoeste Piauiense
2204501,PI,Piauí,Guadalupe,,-43.5669236545,-6.7852469087,Guadalupe,,Floriano,Sudoeste Piauiense
2204550,PI,Piauí,Guaribas,,-43.6877210274,-9.3951113037,Guaribas,,São Raimundo Nonato,Sudoeste Piauiense
2204600,PI,Piauí,Hugo Napoleão,,-42.5625630466,-5.9877878907,Hugo Napoleao,,Médio Parnaíba Piauiense,Centro-Norte Piauiense
2204659,PI,Piauí,Ilha Grande,,-41.819773184,-2.8540086072,Ilha Grande,,Litoral Piauiense,Norte Piauiense
2204709,PI,Piauí,Inhuma,,-41.7101940565,-6.6671203407,Inhuma,,Valença do Piauí,Centro-Norte Piauiense
2204808,PI,Piauí,Ipiranga do Piauí,,-41.7399141279,-6.8269326783,Ipiranga do Piaui,,Picos,Sudeste Piauiense
2204907,PI,Piauí,Isaías Coelho,,-41.6794480825,-7.7343106967,Isaias Coelho,,Alto Médio Canindé,Sudeste Piauiense
2205003,PI,Piauí,Itainópolis,,-41.4800253105,-7.4512808131,Itainopolis,,Alto Médio Canindé,Sudeste Piauiense
2205102,PI,Piauí,Itaueira,,-43.0254965078,-7.6081166325,Itaueira,,Floriano,Sudoeste Piauiense
2205151,PI,Piauí,Jacobina do Piauí,,-41.2107620507,-7.9362644875,Jacobina do Piaui,,Alto Médio Canindé,Sudeste Piauiense
2205201,PI,Piauí,Jaicós,,-41.1464748135,-7.3531523272,Jaicos,,Alto Médio Canindé,Sudeste Piauiense
2205250,PI,Piauí,Jardim do Mulato,,-42.6339595632,-6.0965775948,Jardim do Mulato,,Médio Parnaíba Piauiense,Centro-Norte Piauiense
2205276,PI,Piauí,Jatobá do Piauí,,-41.8198222186,-4.7731589443,Jatoba do Piaui,,Campo Maior,Centro-Norte Piauiense
2205300,PI,Piauí,Jerumenha,,-43.5027430064,-7.0846321939,Jerumenha,,Floriano,Sudoeste Piauiense
2205359,PI,Piauí,João Costa,,-42.4178485806,-8.4891257219,Joao Costa,,Alto Médio Canindé,Sudeste Piauiense
2205409,PI,Piauí,Joaquim Pires,,-42.1876898036,-3.5131035479,Joaquim Pires,,Baixo Parnaíba Piauiense,Norte Piauiense
2205458,PI,Piauí,Joca Marques,,-42.427737079,-3.4880338256,Joca Marques,,Baixo Parnaíba Piauiense,Norte Piauiense
2205508,PI,Piauí,José de Freitas,,-42.5783745315,-4.7630506395,Jose de Freitas,,Teresina,Centro-Norte Piauiense
2205516,PI,Piauí,Juazeiro do Piauí,,-41.7026007597,-5.1613727543,Juazeiro do Piaui,,Campo Maior,Centro-Norte Piauiense
2205524,PI,Piauí,Júlio Borges,,-44.2437006324,-10.3267868137,Julio Borges,,Chapadas do Extremo Sul Piauiense,Sudoeste Piauiense
2205532,PI,Piauí,Jurema,,-43.133109743,-9.2220247205,Jurema,,São Raimundo Nonato,Sudoeste Piauiense
2205540,PI,Piauí,Lagoinha do Piauí,,-42.6273837299,-5.8365834406,Lagoinha do Piaui,,Médio Parnaíba Piauiense,Centro-Norte Piauiense
2205557,PI,Piauí,Lagoa Alegre,,-42.616742539,-4.5087297492,Lagoa Alegre,,Teresina,Centro-Norte Piauiense
2205565,PI,Piauí,Lagoa do Barro do Piauí,,-41.5302754057,-8.4824371152,Lagoa do Barro do Piaui,,Alto Médio Canindé,Sudeste Piauiense
2205573,PI,Piauí,Lagoa de São Francisco,,-41.6054686902,-4.3927463867,Lagoa de Sao Francisco,,Campo Maior,Centro-Norte Piauiense
2205581,PI,Piauí,Lagoa do Piauí,,-42.6490132063,-5.4121441696,Lagoa do Piaui,,Teresina,Centro-Norte Piauiense
2205599,PI,Piauí,Lagoa do Sítio,,-41.5823863013,-6.5153476298,Lagoa do Sitio,,Valença do Piauí,Centro-Norte Piauiense
2205607,PI,Piauí,Landri Sales,,-43.9310455151,-7.2665999754,Landri Sales,,Bertolínia,Sudoeste Piauiense
2205706,PI,Piauí,Luís Correia,,-41.6645672323,-2.8815665358,Luis Correia,,Litoral Piauiense,Norte Piauiense
2205805,PI,Piauí,Luzilândia,,-42.3716375238,-3.4608176352,Luzilandia,,Baixo Parnaíba Piauiense,Norte Piauiense
2205854,PI,Piauí,Madeiro,,-42.5051412465,-3.4842120052,Madeiro,,Baixo Parnaíba Piauiense,Norte Piauiense
2205904,PI,Piauí,Manoel Emídio,,-43.8754746717,-8.011358674,Manoel Emidio,,Bertolínia,Sudoeste Piauiense
2205953,PI,Piauí,Marcolândia,,-40.6628542914,-7.4435566614,Marcolandia,,Alto Médio Canindé,Sudeste Piauiense
2206001,PI,Piauí,Marcos Parente,,-43.8883140086,-7.1192953775,Marcos Parente,,Bertolínia,Sudoeste Piauiense
2206050,PI,Piauí,Massapê do Piauí,,-41.1238546846,-7.4654826845,Massape do Piaui,,Alto Médio Canindé,Sudeste Piauiense
2206100,PI,Piauí,Matias Olímpio,,-42.5586289028,-3.7110272834,Matias Olimpio,,Baixo Parnaíba Piauiense,Norte Piauiense
2206209,PI,Piauí,Miguel Alves,,-42.8931666493,-4.1682155823,Miguel Alves,,Baixo Parnaíba Piauiense,Norte Piauiense
2206308,PI,Piauí,Miguel Leão,,-42.7358295252,-5.6822417804,Miguel Leao,,Teresina,Centro-Norte Piauiense
2206357,PI,Piauí,Milton Brandão,,-41.4479595412,-4.6999534776,Milton Brandao,,Campo Maior,Centro-Norte Piauiense
2206407,PI,Piauí,Monsenhor Gil,,-42.6173989159,-5.5514856314,Monsenhor Gil,,Teresina,Centro-Norte Piauiense
2206506,PI,Piauí,Monsenhor Hipólito,,-41.0328934036,-7.0035024726,Monsenhor Hipolito,,Pio Ix,Sudeste Piauiense
2206605,PI,Piauí,Monte Alegre do Piauí,,-45.2957402209,-9.7558336681,Monte Alegre do Piaui,,Alto Médio Gurguéia,Sudoeste Piauiense
2206654,PI,Piauí,Morro Cabeça no Tempo,,-43.9018743654,-9.7193194922,Morro Cabeca no Tempo,,Chapadas do Extremo Sul Piauiense,Sudoeste Piauiense
2206670,PI,Piauí,Morro do Chapéu do Piauí,,-42.309063395,-3.7422550962,Morro do Chapeu do Piaui,,Baixo Parnaíba Piauiense,Norte Piauiense
2206696,PI,Piauí,Murici dos Portelas,,-42.0967690818,-3.3238597851,Murici dos Portelas,,Litoral Piauiense,Norte Piauiense
2206704,PI,Piauí,Nazaré do Piauí,,-42.6682272301,-6.9671284911,Nazare do Piaui,,Floriano,Sudoeste Piauiense
2206720,PI,Piauí,Nazária,,-42.8140484696,-5.346925,Nazaria,,Teresina,Centro-Norte Piauiense
2206753,PI,Piauí,Nossa Senhora de Nazaré,,-42.1793030785,-4.6269320917,Nossa Senhora de Nazare,,Campo Maior,Centro-Norte Piauiense
2206803,PI,Piauí,Nossa Senhora dos Remédios,,-42.6239510485,-3.9912253518,Nossa Senhora dos Remedios,,Baixo Parnaíba Piauiense,Norte Piauiense
2206902,PI,Piauí,Novo Oriente do Piauí,,-41.9287223144,-6.4494051369,Novo Oriente do Piaui,,Valença do Piauí,Centro-Norte Piauiense
2206951,PI,Piauí,Novo Santo Antônio,,-41.9345074979,-5.286057644,Novo Santo Antonio,,Campo Maior,Centro-Norte Piauiense
2207009,PI,Piauí,Oeiras,,-42.1314056604,-7.016418006,Oeiras,,Picos,Sudeste Piauiense
2207108,PI,Piauí,Olho D'Água do Piauí,,-42.578551609,-5.8471585734,Olho D'Agua do Piaui,,Médio Parnaíba Piauiense,Centro-Norte Piauiense
2207207,PI,Piauí,Padre Marcos,,-40.9058620824,-7.3547121155,Padre Marcos,,Alto Médio Canindé,Sudeste Piauiense
2207306,PI,Piauí,Paes Landim,,-42.2569576294,-7.7755629145,Paes Landim,,Alto Médio Canindé,Sudeste Piauiense
2207355,PI,Piauí,Pajeú do Piauí,,-42.8169360898,-7.8525200922,Pajeu do Piaui,,São Raimundo Nonato,Sudoeste Piauiense
2207405,PI,Piauí,Palmeira do Piauí,,-44.2325685792,-8.7295011188,Palmeira do Piaui,,Alto Médio Gurguéia,Sudoeste Piauiense
2207504,PI,Piauí,Palmeirais,,-43.0618435229,-5.9797968361,Palmeirais,,Médio Parnaíba Piauiense,Centro-Norte Piauiense
2207553,PI,Piauí,Paquetá,,-41.7013852456,-7.1014662443,Paqueta,,Picos,Sudeste Piauiense
2207603,PI,Piauí,Parnaguá,,-44.6343146131,-10.2171809705,Parnagua,,Chapadas do Extremo Sul Piauiense,Sudoeste Piauiense
2207702,PI,Piauí,Parnaíba,,-41.778170592,-2.9033601445,Parnaiba,,Litoral Piauiense,Norte Piauiense
2207751,PI,Piauí,Passagem Franca do Piauí,,-42.4405267463,-5.8562473203,Passagem Franca do Piaui,,Médio Parnaíba Piauiense,Centro-Norte Piauiense
2207777,PI,Piauí,Patos do Piauí,,-41.2522813963,-7.6807639351,Patos do Piaui,,Alto Médio Canindé,Sudeste Piauiense
2207793,PI,Piauí,Pau D'Arco do Piauí,,-42.3888654971,-5.2510934294,Pau D'Arco do Piaui,,Teresina,Centro-Norte Piauiense
2207801,PI,Piauí,Paulistana,,-41.1470964851,-8.1414361349,Paulistana,,Alto Médio Canindé,Sudeste Piauiense
2207850,PI,Piauí,Pavussu,,-43.2217523026,-7.9642869548,Pavussu,,Floriano,Sudoeste Piauiense
2207900,PI,Piauí,Pedro II,,-41.4585599331,-4.4270552654,Pedro II,,Campo Maior,Centro-Norte Piauiense
2207934,PI,Piauí,Pedro Laurentino,,-42.28607367,-8.0668825944,Pedro Laurentino,,Alto Médio Canindé,Sudeste Piauiense
2207959,PI,Piauí,Nova Santa Rita,,-42.0482620011,-8.0749647181,Nova Santa Rita,,Alto Médio Canindé,Sudeste Piauiense
2208007,PI,Piauí,Picos,,-41.4688267147,-7.0813739122,Picos,,Picos,Sudeste Piauiense
2208106,PI,Piauí,Pimenteiras,,-41.4151586072,-6.2416884097,Pimenteiras,,Valença do Piauí,Centro-Norte Piauiense
2208205,PI,Piauí,Pio IX,,-40.6182727863,-6.8326873012,Pio IX,,Pio Ix,Sudeste Piauiense
2208304,PI,Piauí,Piracuruca,,-41.7090415496,-3.9292874936,Piracuruca,,Litoral Piauiense,Norte Piauiense
2208403,PI,Piauí,Piripiri,,-41.7785048524,-4.2760686933,Piripiri,,Baixo Parnaíba Piauiense,Norte Piauiense
2208502,PI,Piauí,Porto,,-42.7109259993,-3.891422995,Porto,,Baixo Parnaíba Piauiense,Norte Piauiense
2208551,PI,Piauí,Porto Alegre do Piauí,,-44.1948371019,-6.9717246866,Porto Alegre do Piaui,,Bertolínia,Sudoeste Piauiense
2208601,PI,Piauí,Prata do Piauí,,-42.2042236753,-5.6647976938,Prata do Piaui,,Valença do Piauí,Centro-Norte Piauiense
2208650,PI,Piauí,Queimada Nova,,-41.4170249222,-8.5854253469,Queimada Nova,,Alto Médio Canindé,Sudeste Piauiense
2208700,PI,Piauí,Redenção do Gurguéia,,-44.5812141606,-9.4934482414,Redencao do Gurgueia,,Alto Médio Gurguéia,Sudoeste Piauiense
2208809,PI,Piauí,Regeneração,,-42.6850242313,-6.2401830211,Regeneracao,,Médio Parnaíba Piauiense,Centro-Norte Piauiense
2208858,PI,Piauí,Riacho Frio,,-44.9525300483,-10.1287276881,Riacho Frio,,Chapadas do Extremo Sul Piauiense,Sudoeste Piauiense
2208874,PI,Piauí,Ribeira do Piauí,,-42.7140434913,-7.6905755012,Ribeira do Piaui,,Alto Médio Canindé,Sudeste Piauiense
2208908,PI,Piauí,Ribeiro Gonçalves,,-45.2456386843,-7.558034245,Ribeiro Goncalves,,Alto Parnaíba Piauiense,Sudoeste Piauiense
2209005,PI,Piauí,Rio Grande do Piauí,,-43.140182786,-7.7708571198,Rio Grande do Piaui,,Floriano,Sudoeste Piauiense
2209104,PI,Piauí,Santa Cruz do Piauí,,-41.7619256891,-7.1776264961,Santa Cruz do Piaui,,Picos,Sudeste Piauiense
2209153,PI,Piauí,Santa Cruz dos Milagres,,-41.9584459531,-5.8081209984,Santa Cruz dos Milagres,,Valença do Piauí,Centro-Norte Piauiense
2209203,PI,Piauí,Santa Filomena,,-45.9205564411,-9.1067957053,Santa Filomena,,Alto Parnaíba Piauiense,Sudoeste Piauiense
2209302,PI,Piauí,Santa Luz,,-44.1295859063,-8.9446242169,Santa Luz,,Alto Médio Gurguéia,Sudoeste Piauiense
2209351,PI,Piauí,Santana do Piauí,,-41.518480558,-6.9490717639,Santana do Piaui,,Picos,Sudeste Piauiense
2209377,PI,Piauí,Santa Rosa do Piauí,,-42.2808138761,-6.8014550583,Santa Rosa do Piaui,,Picos,Sudeste Piauiense
2209401,PI,Piauí,Santo Antônio de Lisboa,,-41.2337647421,-6.981848477,Santo Antonio de Lisboa,,Pio Ix,Sudeste Piauiense
2209450,PI,Piauí,Santo Antônio dos Milagres,,-42.711196805,-6.0467175963,Santo Antonio dos Milagres,,Médio Parnaíba Piauiense,Centro-Norte Piauiense
2209500,PI,Piauí,Santo Inácio do Piauí,,-41.91821286,-7.4223368374,Santo Inacio do Piaui,,Alto Médio Canindé,Sudeste Piauiense
2209559,PI,Piauí,São Braz do Piauí,,-42.9990725171,-9.0625605359,Sao Braz do Piaui,,São Raimundo Nonato,Sudoeste Piauiense
2209609,PI,Piauí,São Félix do Piauí,,-42.1135025902,-5.932867663,Sao Felix do Piaui,,Valença do Piauí,Centro-Norte Piauiense
2209658,PI,Piauí,São Francisco de Assis do Piauí,,-41.6895971517,-8.2377547497,Sao Francisco de Assis do Piaui,,Alto Médio Canindé,Sudeste Piauiense
2209708,PI,Piauí,São Francisco do Piauí,,-42.538531987,-7.2439761039,Sao Francisco do Piaui,,Floriano,Sudoeste Piauiense
2209757,PI,Piauí,São Gonçalo do Gurguéia,,-45.3014055106,-10.0299401062,Sao Goncalo do Gurgueia,,Alto Médio Gurguéia,Sudoeste Piauiense
2209807,PI,Piauí,São Gonçalo do Piauí,,-42.6988309841,-5.9896674395,Sao Goncalo do Piaui,,Médio Parnaíba Piauiense,Centro-Norte Piauiense
2209856,PI,Piauí,São João da Canabrava,,-41.3460536519,-6.8189309895,Sao Joao da Canabrava,,Picos,Sudeste Piauiense
2209872,PI,Piauí,São João da Fronteira,,-41.2562869593,-3.9385974341,Sao Joao da Fronteira,,Litoral Piauiense,Norte Piauiense
2209906,PI,Piauí,São João da Serra,,-41.8992637511,-5.5087975378,Sao Joao da Serra,,Campo Maior,Centro-Norte Piauiense
2209955,PI,Piauí,São João da Varjota,,-41.8637422049,-6.9190178385,Sao Joao da Varjota,,Picos,Sudeste Piauiense
2209971,PI,Piauí,São João do Arraial,,-42.4531261733,-3.8131688736,Sao Joao do Arraial,,Baixo Parnaíba Piauiense,Norte Piauiense
2210003,PI,Piauí,São João do Piauí,,-42.2564375329,-8.348849688,Sao Joao do Piaui,,Alto Médio Canindé,Sudeste Piauiense
2210052,PI,Piauí,São José do Divino,,-41.8301087692,-3.8057163565,Sao Jose do Divino,,Litoral Piauiense,Norte Piauiense
2210102,PI,Piauí,São José do Peixe,,-42.5701794158,-7.4930087809,Sao Jose do Peixe,,Floriano,Sudoeste Piauiense
2210201,PI,Piauí,São José do Piauí,,-41.4794072342,-6.8706262447,Sao Jose do Piaui,,Picos,Sudeste Piauiense
2210300,PI,Piauí,São Julião,,-40.8369132448,-7.0853150046,Sao Juliao,,Pio Ix,Sudeste Piauiense
2210359,PI,Piauí,São Lourenço do Piauí,,-42.5443519904,-9.1720018771,Sao Lourenco do Piaui,,São Raimundo Nonato,Sudoeste Piauiense
2210375,PI,Piauí,São Luis do Piauí,,-41.3228378192,-6.8281438298,Sao Luis do Piaui,,Picos,Sudeste Piauiense
2210383,PI,Piauí,São Miguel da Baixa Grande,,-42.1853773738,-5.8622986343,Sao Miguel da Baixa Grande,,Valença do Piauí,Centro-Norte Piauiense
2210391,PI,Piauí,São Miguel do Fidalgo,,-42.3705290412,-7.5849691189,Sao Miguel do Fidalgo,,Floriano,Sudoeste Piauiense
2210409,PI,Piauí,São Miguel do Tapuio,,-41.3197984895,-5.5006636991,Sao Miguel do Tapuio,,Campo Maior,Centro-Norte Piauiense
2210508,PI,Piauí,São Pedro do Piauí,,-42.7236601721,-5.9139516466,Sao Pedro do Piaui,,Médio Parnaíba Piauiense,Centro-Norte Piauiense
2210607,PI,Piauí,São Raimundo Nonato,,-42.6922851642,-9.0153604824,Sao Raimundo Nonato,,São Raimundo Nonato,Sudoeste Piauiense
2210623,PI,Piauí,Sebastião Barros,,-44.8332841775,-10.8166752206,Sebastiao Barros,,Chapadas do Extremo Sul Piauiense,Sudoeste Piauiense
2210631,PI,Piauí,Sebastião Leal,,-44.0676917696,-7.5773856302,Sebastiao Leal,,Bertolínia,Sudoeste Piauiense
2210656,PI,Piauí,Sigefredo Pacheco,,-41.7275592248,-4.9116891642,Sigefredo Pacheco,,Campo Maior,Centro-Norte Piauiense
2210706,PI,Piauí,Simões,,-40.8175090684,-7.5991371657,Simoes,,Alto Médio Canindé,Sudeste Piauiense
2210805,PI,Piauí,Simplício Mendes,,-41.9109103617,-7.8579572939,Simplicio Mendes,,Alto Médio Canindé,Sudeste Piauiense
2210904,PI,Piauí,Socorro do Piauí,,-42.5046917237,-7.8649380571,Socorro do Piaui,,Alto Médio Canindé,Sudeste Piauiense
2210938,PI,Piauí,Sussuapara,,-41.3922677309,-7.0170105888,Sussuapara,,Picos,Sudeste Piauiense
2210953,PI,Piauí,Tamboril do Piauí,,-42.9096888302,-8.4004317801,Tamboril do Piaui,,São Raimundo Nonato,Sudoeste Piauiense
2210979,PI,Piauí,Tanque do Piauí,,-42.2839013405,-6.5963534674,Tanque do Piaui,,Picos,Sudeste Piauiense
2211001,PI,Piauí,Teresina,true,-42.8052704582,-5.0863419523,Teresina,,Teresina,Centro-Norte Piauiense
2211100,PI,Piauí,União,,-42.862929716,-4.5860181591,Uniao,,Teresina,Centro-Norte Piauiense
2211209,PI,Piauí,Uruçuí,,-44.5602559239,-7.2295033446,Urucui,,Alto Parnaíba Piauiense,Sudoeste Piauiense
2211308,PI,Piauí,Valença do Piauí,,-41.7405359913,-6.3981960227,Valenca do Piaui,,Valença do Piauí,Centro-Norte Piauiense
2211357,PI,Piauí,Várzea Branca,,-42.969444535,-9.2365410893,Varzea Branca,,São Raimundo Nonato,Sudoeste Piauiense
2211407,PI,Piauí,Várzea Grande,,-42.2531016233,-6.5429475544,Varzea Grande,,Valença do Piauí,Centro-Norte Piauiense
2211506,PI,Piauí,Vera Mendes,,-41.47973675,-7.6028492829,Vera Mendes,,Alto Médio Canindé,Sudeste Piauiense
2211605,PI,Piauí,Vila Nova do Piauí,,-40.9378013965,-7.141046434,Vila Nova do Piaui,,Alto Médio Canindé,Sudeste Piauiense
2211704,PI,Piauí,Wall Ferraz,,-41.9089536203,-7.2357790064,Wall Ferraz,,Picos,Sudeste Piauiense
2300101,CE,Ceará,Abaiara,,-39.0475466362,-7.3569765959,Abaiara,,Brejo Santo,Sul Cearense
2300150,CE,Ceará,Acarape,,-38.705623771,-4.2231384094,Acarape,,Baturité,Norte Cearense
2300200,CE,Ceará,Acaraú,,-40.1182414712,-2.8853105401,Acarau,,Litoral de Camocim e Acaraú,Noroeste Cearense
2300309,CE,Ceará,Acopiara,,-39.4557052762,-6.092761995,Acopiara,,Sertão de Senador Pompeu,Sertões Cearenses
2300408,CE,Ceará,Aiuaba,,-40.1231600776,-6.5632984401,Aiuaba,,Sertão de Inhamuns,Sertões Cearenses
2300507,CE,Ceará,Alcântaras,,-40.5446381226,-3.5869837692,Alcantaras,,Meruoca,Noroeste Cearense
2300606,CE,Ceará,Altaneira,,-39.7458206389,-6.9974983508,Altaneira,,Caririaçu,Sul Cearense
2300705,CE,Ceará,Alto Santo,,-38.2727781487,-5.5220817397,Alto Santo,,Baixo Jaguaribe,Jaguaribe
2300754,CE,Ceará,Amontada,,-39.8288227917,-3.3648778035,Amontada,,Itapipoca,Norte Cearense
2300804,CE,Ceará,Antonina do Norte,,-39.9823868419,-6.7796878471,Antonina do Norte,,Várzea Alegre,Centro-Sul Cearense
2300903,CE,Ceará,Apuiarés,,-39.4304227833,-3.9480185186,Apuiares,,Médio Curu,Norte Cearense
2301000,CE,Ceará,Aquiraz,,-38.3898029589,-3.9061945,Aquiraz,,Fortaleza,Metropolitana de Fortaleza
2301109,CE,Ceará,Aracati,,-37.7727525989,-4.56706647,Aracati,,Litoral de Aracati,Jaguaribe
2301208,CE,Ceará,Aracoiaba,,-38.8094409692,-4.370393807,Aracoiaba,,Baturité,Norte Cearense
2301257,CE,Ceará,Ararendá,,-40.831096735,-4.751938272,Ararenda,,Sertão de Cratéus,Sertões Cearenses
2301307,CE,Ceará,Araripe,,-40.1374458094,-7.2061837892,Araripe,,Chapada do Araripe,Sul Cearense
2301406,CE,Ceará,Aratuba,,-39.0475545618,-4.416930645,Aratuba,,Baturité,Norte Cearense
2301505,CE,Ceará,Arneiroz,,-40.1614437124,-6.319425803,Arneiroz,,Sertão de Inhamuns,Sertões Cearenses
2301604,CE,Ceará,Assaré,,-39.8712747475,-6.8726071122,Assare,,Chapada do Araripe,Sul Cearense
2301703,CE,Ceará,Aurora,,-38.9769908769,-6.940391832,Aurora,,Barro,Sul Cearense
2301802,CE,Ceará,Baixio,,-38.720125916,-6.7271620493,Baixio,,Lavras da Mangabeira,Centro-Sul Cearense
2301851,CE,Ceará,Banabuiú,,-38.9257848049,-5.315047304,Banabuiu,,Sertão de Quixeramobim,Sertões Cearenses
2301901,CE,Ceará,Barbalha,,-39.3023163692,-7.3071721269,Barbalha,,Cariri,Sul Cearense
